{
  "generated": "2026-02-22T02:28:41.274788+00:00",
  "count": 639,
  "stores": [
    {
      "slug": "albertville-al-mathis-mill",
      "name": "Albertville, AL",
      "city": "Albertville",
      "state": "AL",
      "address": "500 Mathis Mill Rd",
      "lat": 34.2788,
      "lng": -86.2103
    },
    {
      "slug": "auburn-al-university-dr",
      "name": "Auburn, AL",
      "city": "Auburn",
      "state": "AL",
      "address": "2080 E University Dr",
      "lat": 32.6266,
      "lng": -85.4492
    },
    {
      "slug": "birmingham-al-tattersall-blvd",
      "name": "Birmingham, AL",
      "city": "Birmingham",
      "state": "AL",
      "address": "6222 Tattersall Blvd",
      "lat": 33.4216,
      "lng": -86.6699
    },
    {
      "slug": "decatur-al-6th-ave",
      "name": "Decatur, AL",
      "city": "Decatur",
      "state": "AL",
      "address": "2009 6th Ave SE",
      "lat": 34.574,
      "lng": -86.9747
    },
    {
      "slug": "florence-al-cloverdale-rd",
      "name": "Florence, AL",
      "city": "Florence",
      "state": "AL",
      "address": "2713 Cloverdale Rd",
      "lat": 34.8426,
      "lng": -87.6891
    },
    {
      "slug": "foley-al-s-mckenzie-st",
      "name": "Foley, AL",
      "city": "Foley",
      "state": "AL",
      "address": "3241 S McKenzie St",
      "lat": 30.3657,
      "lng": -87.6826
    },
    {
      "slug": "hampton-cove-al-us-hwy-431",
      "name": "Hampton Cove, AL",
      "city": "Hampton Cove",
      "state": "AL",
      "address": "6490 US Highway 431 S",
      "lat": 34.664,
      "lng": -86.4867
    },
    {
      "slug": "hazel-green-al-us-231",
      "name": "Hazel Green, AL",
      "city": "Hazel Green",
      "state": "AL",
      "address": "14359 Hwy 231-431 N",
      "lat": 34.9374,
      "lng": -86.5724
    },
    {
      "slug": "hoover-al-john-hawkins-pkwy",
      "name": "Hoover, AL",
      "city": "Hoover",
      "state": "AL",
      "address": "1037 Amber Dr",
      "lat": 33.3546,
      "lng": -86.8482
    },
    {
      "slug": "huntsville-al-winchester-rd",
      "name": "Huntsville, AL",
      "city": "Huntsville",
      "state": "AL",
      "address": "2007 Winchester Road",
      "lat": 34.8151,
      "lng": -86.5002
    },
    {
      "slug": "madison-al-wall-triana-hwy",
      "name": "Madison, AL",
      "city": "Madison",
      "state": "AL",
      "address": "4567 Wall Triana Hwy",
      "lat": 34.7071,
      "lng": -86.7504
    },
    {
      "slug": "madison-us-hwy-72-w",
      "name": "Madison, AL",
      "city": "Madison",
      "state": "AL",
      "address": "8382 US Hwy 72 W",
      "lat": 34.7501,
      "lng": -86.7649
    },
    {
      "slug": "mobile-al-airport-blvd",
      "name": "Mobile, AL",
      "city": "Mobile",
      "state": "AL",
      "address": "3930 Airport Blvd",
      "lat": 30.6766,
      "lng": -88.1457
    },
    {
      "slug": "orange-beach-al-canal-rd",
      "name": "Orange Beach, AL",
      "city": "Orange Beach",
      "state": "AL",
      "address": "23671 Canal Road",
      "lat": 30.2908,
      "lng": -87.6216
    },
    {
      "slug": "oxford-al-recreation-dr",
      "name": "Oxford, AL",
      "city": "Oxford",
      "state": "AL",
      "address": "3 Recreation Dr",
      "lat": 33.6062,
      "lng": -85.8266
    },
    {
      "slug": "phenix-city-hwy-280",
      "name": "Phenix City, AL",
      "city": "Phenix City",
      "state": "AL",
      "address": "3650 Market Place Dr",
      "lat": 32.4961,
      "lng": -85.0434
    },
    {
      "slug": "avondale",
      "name": "Avondale, AZ",
      "city": "Avondale",
      "state": "AZ",
      "address": "1025 North Avondale Blvd",
      "lat": 33.4572,
      "lng": -112.3059
    },
    {
      "slug": "buckeye-az-verrado-way",
      "name": "Buckeye, AZ",
      "city": "Buckeye",
      "state": "AZ",
      "address": "1540 N Verrado Way",
      "lat": 33.4648,
      "lng": -112.5048
    },
    {
      "slug": "bullhead-city-az-hwy-95",
      "name": "Bullhead City, AZ",
      "city": "Bullhead City",
      "state": "AZ",
      "address": "3699 Hwy 95 #700",
      "lat": 35.0546,
      "lng": -114.5903
    },
    {
      "slug": "casa-grande",
      "name": "Casa Grande, AZ",
      "city": "Casa Grande",
      "state": "AZ",
      "address": "2453 E Florence Blvd",
      "lat": 32.8791,
      "lng": -111.6816
    },
    {
      "slug": "chandler",
      "name": "Chandler, AZ",
      "city": "Chandler",
      "state": "AZ",
      "address": "3155 W Ray Road",
      "lat": 33.3198,
      "lng": -111.8966
    },
    {
      "slug": "chandler-az-s-arizona-rd",
      "name": "Chandler, AZ",
      "city": "Chandler",
      "state": "AZ",
      "address": "1510 S Arizona Ave",
      "lat": 33.2835,
      "lng": -111.8421
    },
    {
      "slug": "flagstaff-az-route-66",
      "name": "Flagstaff, AZ",
      "city": "Flagstaff",
      "state": "AZ",
      "address": "1716 E Route 66",
      "lat": 35.196,
      "lng": -111.6271
    },
    {
      "slug": "gilbert-az-val-vista",
      "name": "Gilbert, AZ",
      "city": "Gilbert",
      "state": "AZ",
      "address": "3610 S Val Vista Dr",
      "lat": 33.2848,
      "lng": -111.7559
    },
    {
      "slug": "glendale-az",
      "name": "Glendale, AZ",
      "city": "Glendale",
      "state": "AZ",
      "address": "5127 N 99th Ave",
      "lat": 33.5095,
      "lng": -112.2719
    },
    {
      "slug": "goodyear-az-estrella-pkwy",
      "name": "Goodyear, AZ",
      "city": "Goodyear",
      "state": "AZ",
      "address": "130 N Estrella Pkwy",
      "lat": 33.4476,
      "lng": -112.3934
    },
    {
      "slug": "sahuarita-az-s-nogales-hwy",
      "name": "Green Valley, AZ",
      "city": "Green Valley",
      "state": "AZ",
      "address": "18810 S Nogales Hwy",
      "lat": 31.9085,
      "lng": -110.9828
    },
    {
      "slug": "kingman-az-airway-ave",
      "name": "Kingman, AZ",
      "city": "Kingman",
      "state": "AZ",
      "address": "1737 Airway Ave",
      "lat": 35.2254,
      "lng": -114.0349
    },
    {
      "slug": "maricopa-az-john-wayne-pkwy",
      "name": "Maricopa, AZ",
      "city": "Maricopa",
      "state": "AZ",
      "address": "20430 N. John Wayne Pkwy",
      "lat": 33.0649,
      "lng": -112.0485
    },
    {
      "slug": "mesa",
      "name": "Mesa, AZ",
      "city": "Mesa",
      "state": "AZ",
      "address": "1909 S. Country Club Drive",
      "lat": 33.38,
      "lng": -111.8396
    },
    {
      "slug": "mesa-az-crismon-rd",
      "name": "Mesa, AZ",
      "city": "Mesa",
      "state": "AZ",
      "address": "1263 S Crismon Rd",
      "lat": 33.3915,
      "lng": -111.6147
    },
    {
      "slug": "mesa-az-e-mckellips-rd",
      "name": "Mesa, AZ",
      "city": "Mesa",
      "state": "AZ",
      "address": "1830 E McKellips Rd",
      "lat": 33.4523,
      "lng": -111.7909
    },
    {
      "slug": "mesa-az-greenfield",
      "name": "Mesa, AZ",
      "city": "Mesa",
      "state": "AZ",
      "address": "1841 South Greenfield Road",
      "lat": 33.3812,
      "lng": -111.7388
    },
    {
      "slug": "peoria-az",
      "name": "Peoria, AZ",
      "city": "Peoria",
      "state": "AZ",
      "address": "8271 W. Ludlow Drive",
      "lat": 33.6116,
      "lng": -112.2368
    },
    {
      "slug": "peoria-az-deer-valley-rd",
      "name": "Peoria, AZ",
      "city": "Peoria",
      "state": "AZ",
      "address": "8330 W. Deer Valley Rd",
      "lat": 33.682,
      "lng": -112.2392
    },
    {
      "slug": "phoenix-camelback",
      "name": "Phoenix, AZ",
      "city": "Phoenix",
      "state": "AZ",
      "address": "825 E. Camelback Rd.",
      "lat": 33.5088,
      "lng": -112.0631
    },
    {
      "slug": "phoenix-cave-creek",
      "name": "Phoenix, AZ",
      "city": "Phoenix",
      "state": "AZ",
      "address": "20835 North Cave Creek Road",
      "lat": 33.6764,
      "lng": -112.0304
    },
    {
      "slug": "phoeniz-deer-valley",
      "name": "Phoenix, AZ",
      "city": "Phoenix",
      "state": "AZ",
      "address": "1825 West Deer Valley Road",
      "lat": 33.6832,
      "lng": -112.098
    },
    {
      "slug": "prescott-az-willow-creek",
      "name": "Prescott, AZ",
      "city": "Prescott",
      "state": "AZ",
      "address": "3125 Willow Creek Rd",
      "lat": 34.5954,
      "lng": -112.4651
    },
    {
      "slug": "prescott-valley-stoneridge-az",
      "name": "Prescott Valley, AZ",
      "city": "Prescott Valley",
      "state": "AZ",
      "address": "2544 N Jasper Pkwy",
      "lat": 34.5799,
      "lng": -112.3611
    },
    {
      "slug": "queen-creek-az-ocotillo-rd",
      "name": "Queen Creek, AZ",
      "city": "Queen Creek",
      "state": "AZ",
      "address": "140 W Ocotillo Rd",
      "lat": 33.2495,
      "lng": -111.566
    },
    {
      "slug": "queen-creek-az-s-ellsworth-rd",
      "name": "Queen Creek, AZ",
      "city": "Queen Creek",
      "state": "AZ",
      "address": "23651 S Ellsworth Rd",
      "lat": 33.2337,
      "lng": -111.6337
    },
    {
      "slug": "scottsdale-az",
      "name": "Scottsdale, AZ",
      "city": "Scottsdale",
      "state": "AZ",
      "address": "8668 East Shea Blvd",
      "lat": 33.5827,
      "lng": -111.8937
    },
    {
      "slug": "show-low-az-white-mountain-rd",
      "name": "Show Low, AZ",
      "city": "Show Low",
      "state": "AZ",
      "address": "4595 S White Mountain Rd",
      "lat": 34.2074,
      "lng": -110.0212
    },
    {
      "slug": "surprise",
      "name": "Surprise, AZ",
      "city": "Surprise",
      "state": "AZ",
      "address": "16145 West Bell Road",
      "lat": 33.6383,
      "lng": -112.4067
    },
    {
      "slug": "tempe-az-southern-ave",
      "name": "Tempe, AZ",
      "city": "Tempe",
      "state": "AZ",
      "address": "630 East Southern Ave",
      "lat": 33.3935,
      "lng": -111.9298
    },
    {
      "slug": "tucson-az-campbell",
      "name": "Tucson, AZ",
      "city": "Tucson",
      "state": "AZ",
      "address": "3070 South Campbell Avenue",
      "lat": 32.186,
      "lng": -110.944
    },
    {
      "slug": "tucson-az-first-ave",
      "name": "Tucson, AZ",
      "city": "Tucson",
      "state": "AZ",
      "address": "4810 N 1st Ave",
      "lat": 32.2943,
      "lng": -110.9605
    },
    {
      "slug": "tucson-az-w-valencia-drive",
      "name": "Tucson, AZ",
      "city": "Tucson",
      "state": "AZ",
      "address": "1955 W Valencia Rd",
      "lat": 32.1333,
      "lng": -111.008
    },
    {
      "slug": "tucson-broadway",
      "name": "Tucson, AZ",
      "city": "Tucson",
      "state": "AZ",
      "address": "40 S Broadway Place",
      "lat": 32.2205,
      "lng": -110.832
    },
    {
      "slug": "tucson-thornydale",
      "name": "Tucson, AZ",
      "city": "Tucson",
      "state": "AZ",
      "address": "6905 N Thornydale Rd",
      "lat": 32.3322,
      "lng": -111.0468
    },
    {
      "slug": "aurora-co-buckley-rd",
      "name": "Aurora, CO",
      "city": "Aurora",
      "state": "CO",
      "address": "1736 S Buckley Rd",
      "lat": 39.6846,
      "lng": -104.7904
    },
    {
      "slug": "castle-rock-co-meadows-pkwy",
      "name": "Castle Rock, CO",
      "city": "Castle Rock",
      "state": "CO",
      "address": "654 Genoa Way",
      "lat": 39.4102,
      "lng": -104.8692
    },
    {
      "slug": "centennial-co-e-arapahoe",
      "name": "Centennial, CO",
      "city": "Centennial",
      "state": "CO",
      "address": "10440 E Arapahoe Rd",
      "lat": 39.5945,
      "lng": -104.8675
    },
    {
      "slug": "colorado-spring-lake-plaza",
      "name": "Colorado Springs, CO",
      "city": "Colorado Springs",
      "state": "CO",
      "address": "1140 Lake Plaza Drive",
      "lat": 38.7951,
      "lng": -104.8083
    },
    {
      "slug": "colorado-springs-academy",
      "name": "Colorado Springs, CO",
      "city": "Colorado Springs",
      "state": "CO",
      "address": "7660 N. Academy Blvd.",
      "lat": 38.9428,
      "lng": -104.8006
    },
    {
      "slug": "colorado-springs-new-center-point",
      "name": "Colorado Springs, CO",
      "city": "Colorado Springs",
      "state": "CO",
      "address": "2925 New Center Pt",
      "lat": 38.8731,
      "lng": -104.7157
    },
    {
      "slug": "denver-co-n-tower-rd",
      "name": "Denver, CO",
      "city": "Denver",
      "state": "CO",
      "address": "5035 N Tower Rd",
      "lat": 39.7884,
      "lng": -104.7725
    },
    {
      "slug": "falcon",
      "name": "Falcon, CO",
      "city": "Falcon",
      "state": "CO",
      "address": "7220 N. Meridian Road",
      "lat": 38.9379,
      "lng": -104.6115
    },
    {
      "slug": "fort-collins",
      "name": "Fort Collins, CO",
      "city": "Fort Collins",
      "state": "CO",
      "address": "918 S. Lemay Avenue",
      "lat": 40.5753,
      "lng": -105.0573
    },
    {
      "slug": "fountain-co",
      "name": "Fountain, CO",
      "city": "Fountain",
      "state": "CO",
      "address": "8065 Fountain Mesa Road",
      "lat": 38.7154,
      "lng": -104.701
    },
    {
      "slug": "glenwood-springs-co-hwy-6",
      "name": "Glenwood Springs, CO",
      "city": "Glenwood Springs",
      "state": "CO",
      "address": "51283 Hwy 6",
      "lat": 39.5618,
      "lng": -107.3584
    },
    {
      "slug": "grand-junction-co-24-12-road",
      "name": "Grand Junction, CO",
      "city": "Grand Junction",
      "state": "CO",
      "address": "582 24 1/2 Rd",
      "lat": 39.0889,
      "lng": -108.5983
    },
    {
      "slug": "greeley",
      "name": "Greeley, CO",
      "city": "Greeley",
      "state": "CO",
      "address": "3502 W 29th St",
      "lat": 40.3874,
      "lng": -104.7357
    },
    {
      "slug": "johnstown",
      "name": "Johnstown, CO",
      "city": "Johnstown",
      "state": "CO",
      "address": "4890 Thompson Parkway",
      "lat": 40.4066,
      "lng": -104.9808
    },
    {
      "slug": "lakewood-co-webster",
      "name": "Lakewood, CO",
      "city": "Lakewood",
      "state": "CO",
      "address": "2035 S Webster St",
      "lat": 39.6802,
      "lng": -105.0808
    },
    {
      "slug": "littleton-co-s-broadway",
      "name": "Littleton, CO",
      "city": "Littleton",
      "state": "CO",
      "address": "7440 S Broadway",
      "lat": 39.5822,
      "lng": -104.988
    },
    {
      "slug": "longmont-co-hover-rd",
      "name": "Longmont, CO",
      "city": "Longmont",
      "state": "CO",
      "address": "1218 S Hover St",
      "lat": 40.1486,
      "lng": -105.13
    },
    {
      "slug": "loveland-co-eisenhower-blvd",
      "name": "Loveland, CO",
      "city": "Loveland",
      "state": "CO",
      "address": "1606 W Eisenhower Blvd",
      "lat": 40.4068,
      "lng": -105.1005
    },
    {
      "slug": "montrose-co-wolverine-dr",
      "name": "Montrose, CO",
      "city": "Montrose",
      "state": "CO",
      "address": "3841 Wolverine Dr",
      "lat": 38.4455,
      "lng": -107.8674
    },
    {
      "slug": "parker-co",
      "name": "Parker, CO",
      "city": "Parker",
      "state": "CO",
      "address": "18561 E Mainstreet",
      "lat": 39.5186,
      "lng": -104.7743
    },
    {
      "slug": "pueblo-co",
      "name": "Pueblo, CO",
      "city": "Pueblo",
      "state": "CO",
      "address": "2285 W Pueblo Blvd",
      "lat": 38.219,
      "lng": -104.6373
    },
    {
      "slug": "thornton",
      "name": "Thornton, CO",
      "city": "Thornton",
      "state": "CO",
      "address": "9790 Washington Street",
      "lat": 39.8749,
      "lng": -104.9771
    },
    {
      "slug": "westminster-co-72nd-ave",
      "name": "Westminster, CO",
      "city": "Westminster",
      "state": "CO",
      "address": "5330 W 72nd Ave",
      "lat": 39.8269,
      "lng": -105.055
    },
    {
      "slug": "apopka-fl-semoran-blvd",
      "name": "Apopka, FL",
      "city": "Apopka",
      "state": "FL",
      "address": "1616 E Semoran Blvd",
      "lat": 28.6723,
      "lng": -81.4803
    },
    {
      "slug": "arcadia-fl-se-hwy-70",
      "name": "Arcadia, FL",
      "city": "Arcadia",
      "state": "FL",
      "address": "2455 SE Hwy 70",
      "lat": 27.2084,
      "lng": -81.8344
    },
    {
      "slug": "avon-park-fl-us-hwy-27",
      "name": "Avon Park, FL",
      "city": "Avon Park",
      "state": "FL",
      "address": "1023 US Hwy 27 N",
      "lat": 27.6075,
      "lng": -81.5151
    },
    {
      "slug": "bonita-springs-fl-saradrienne-ln",
      "name": "Bonita Springs, FL",
      "city": "Bonita Springs",
      "state": "FL",
      "address": "11905 Bonita Beach Rd SE",
      "lat": 26.3308,
      "lng": -81.7564
    },
    {
      "slug": "boynton-beach-fl-woolbright-rd",
      "name": "Boynton Beach, FL",
      "city": "Boynton Beach",
      "state": "FL",
      "address": "4860 Woolbright Rd",
      "lat": 26.5117,
      "lng": -80.1203
    },
    {
      "slug": "bradenton-fl-64-east",
      "name": "Bradenton, FL",
      "city": "Bradenton",
      "state": "FL",
      "address": "13020 SR 64 East",
      "lat": 27.4834,
      "lng": -82.4125
    },
    {
      "slug": "bradenton-fl-cortez-rd",
      "name": "Bradenton, FL",
      "city": "Bradenton",
      "state": "FL",
      "address": "3515 Cortez Rd W",
      "lat": 27.462,
      "lng": -82.5976
    },
    {
      "slug": "bradenton-fl-fl64e",
      "name": "Bradenton, FL",
      "city": "Bradenton",
      "state": "FL",
      "address": "4714 E State Road 64",
      "lat": 27.4976,
      "lng": -82.5036
    },
    {
      "slug": "bradenton-fl-ranch-lake-blvd",
      "name": "Bradenton, FL",
      "city": "Bradenton",
      "state": "FL",
      "address": "5750 Ranch Lake Blvd",
      "lat": 27.4394,
      "lng": -82.4576
    },
    {
      "slug": "brandon-fl-brandon-blvd",
      "name": "Brandon, FL",
      "city": "Brandon",
      "state": "FL",
      "address": "548 E Brandon Blvd",
      "lat": 27.9381,
      "lng": -82.2779
    },
    {
      "slug": "brooksville-fl-cortez-blvd",
      "name": "Brooksville, FL",
      "city": "Brooksville",
      "state": "FL",
      "address": "12337 Cortez Blvd",
      "lat": 28.5341,
      "lng": -82.5203
    },
    {
      "slug": "brooksville-s-broad-st",
      "name": "Brooksville, FL",
      "city": "Brooksville",
      "state": "FL",
      "address": "1065 S Broad St",
      "lat": 28.5437,
      "lng": -82.4011
    },
    {
      "slug": "bushnell-fl-w-county-rd-48",
      "name": "Bushnell, FL",
      "city": "Bushnell",
      "state": "FL",
      "address": "1942 W C 48",
      "lat": 28.6692,
      "lng": -82.1364
    },
    {
      "slug": "cape-coral-fl",
      "name": "Cape Coral, FL",
      "city": "Cape Coral",
      "state": "FL",
      "address": "1607 Cape Coral Parkway E",
      "lat": 26.5631,
      "lng": -81.9432
    },
    {
      "slug": "cape-coral-fl-ne-pine-island",
      "name": "Cape Coral, FL",
      "city": "Cape Coral",
      "state": "FL",
      "address": "2974 NE Pine Island Rd",
      "lat": 26.6819,
      "lng": -81.9072
    },
    {
      "slug": "cape-coral-fl-pine-island-rd",
      "name": "Cape Coral, FL",
      "city": "Cape Coral",
      "state": "FL",
      "address": "309 SW Pine Island Road",
      "lat": 26.6504,
      "lng": -81.9803
    },
    {
      "slug": "cape-coral-skyline-blvd",
      "name": "Cape Coral, FL",
      "city": "Cape Coral",
      "state": "FL",
      "address": "2526 Skyline Blvd",
      "lat": 26.605,
      "lng": -81.9914
    },
    {
      "slug": "casselberry-fl-hwy-17-92",
      "name": "Casselberry, FL",
      "city": "Casselberry",
      "state": "FL",
      "address": "3920 US Hwy 17-92",
      "lat": 28.6756,
      "lng": -81.3375
    },
    {
      "slug": "clearwater-fl-gulf-to-bay-blvd",
      "name": "Clearwater, FL",
      "city": "Clearwater",
      "state": "FL",
      "address": "2008 Gulf to Bay Blvd",
      "lat": 27.961,
      "lng": -82.7539
    },
    {
      "slug": "clermont-fl",
      "name": "Clermont, FL",
      "city": "Clermont",
      "state": "FL",
      "address": "1431 Johns Lake Rd",
      "lat": 28.5268,
      "lng": -81.7311
    },
    {
      "slug": "clewiston-fl-sugarland-hwy",
      "name": "Clewiston, FL",
      "city": "Clewiston",
      "state": "FL",
      "address": "1030 W Sugarland Hwy",
      "lat": 26.7538,
      "lng": -80.9509
    },
    {
      "slug": "cooper-city-university-dr",
      "name": "Cooper City, FL",
      "city": "Cooper City",
      "state": "FL",
      "address": "3700 University Drive",
      "lat": 26.0402,
      "lng": -80.2505
    },
    {
      "slug": "davenport-fl-posner-blvd",
      "name": "Davenport, FL",
      "city": "Davenport",
      "state": "FL",
      "address": "1107 Posner Blvd",
      "lat": 28.2245,
      "lng": -81.6442
    },
    {
      "slug": "daytona-beach-fl-oulet-blvd",
      "name": "Daytona Beach, FL",
      "city": "Daytona Beach",
      "state": "FL",
      "address": "1560 Outlet Blvd",
      "lat": 29.2201,
      "lng": -81.0966
    },
    {
      "slug": "deland-fl-summit-oak-pl",
      "name": "Deland, FL",
      "city": "Deland",
      "state": "FL",
      "address": "10 Summit Oak Pl",
      "lat": 29.0566,
      "lng": -81.305
    },
    {
      "slug": "destin-fl-hwy98",
      "name": "Destin, FL",
      "city": "Destin",
      "state": "FL",
      "address": "12540 Hwy 98 W",
      "lat": 30.3857,
      "lng": -86.3814
    },
    {
      "slug": "estero-fl",
      "name": "Estero, FL",
      "city": "Estero",
      "state": "FL",
      "address": "10301 Corkscrew Road",
      "lat": 26.4318,
      "lng": -81.7854
    },
    {
      "slug": "estero-fl-murano-del-lago-dr",
      "name": "Estero, FL",
      "city": "Estero",
      "state": "FL",
      "address": "8400 Murano Del Lago Dr",
      "lat": 26.3922,
      "lng": -81.8092
    },
    {
      "slug": "fort-meade-fl-charleston-ave",
      "name": "Fort Meade, FL",
      "city": "Fort Meade",
      "state": "FL",
      "address": "8 N Charleston Ave",
      "lat": 27.753,
      "lng": -81.8011
    },
    {
      "slug": "fort-myers-fl-cleveland",
      "name": "Fort Myers, FL",
      "city": "Fort Myers",
      "state": "FL",
      "address": "12651 South Cleveland Ave",
      "lat": 26.5583,
      "lng": -81.8711
    },
    {
      "slug": "fort-myers-fl-palm-beach-blvd",
      "name": "Fort Myers, FL",
      "city": "Fort Myers",
      "state": "FL",
      "address": "12001 Palm Beach Blvd",
      "lat": 26.6998,
      "lng": -81.7598
    },
    {
      "slug": "fort-myers-fl-sixmilecypresspkwy",
      "name": "Fort Myers, FL",
      "city": "Fort Myers",
      "state": "FL",
      "address": "9340 Six Mile Cypress Parkway",
      "lat": 26.6074,
      "lng": -81.8119
    },
    {
      "slug": "ft-myers-university-plaza",
      "name": "Fort Myers, FL",
      "city": "Fort Myers",
      "state": "FL",
      "address": "10050 University Plaza Drive",
      "lat": 26.4915,
      "lng": -81.7842
    },
    {
      "slug": "fort-walton-beach-fl",
      "name": "Fort Walton Beach, FL",
      "city": "Fort Walton Beach",
      "state": "FL",
      "address": "206 Green Acres Rd",
      "lat": 30.4564,
      "lng": -86.639
    },
    {
      "slug": "gainesville-fl-sw-35th-blvd",
      "name": "Gainesville, FL",
      "city": "Gainesville",
      "state": "FL",
      "address": "4036 SW 30th Pl",
      "lat": 29.6257,
      "lng": -82.3844
    },
    {
      "slug": "haines-city-fl-hwy-27",
      "name": "Haines City, FL",
      "city": "Haines City",
      "state": "FL",
      "address": "37061 N US Hwy 27",
      "lat": 28.1391,
      "lng": -81.6369
    },
    {
      "slug": "highland-city-fl-clubhouse",
      "name": "Highland City, FL",
      "city": "Highland City",
      "state": "FL",
      "address": "4255 Clubhouse Rd",
      "lat": 27.9672,
      "lng": -81.8782
    },
    {
      "slug": "inverness-fl-main-st",
      "name": "Inverness, FL",
      "city": "Inverness",
      "state": "FL",
      "address": "1781 W Main St",
      "lat": 28.8355,
      "lng": -82.3516
    },
    {
      "slug": "jacksonville-fl-gate-pkwy",
      "name": "Jacksonville, FL",
      "city": "Jacksonville",
      "state": "FL",
      "address": "7818 Gate Pkwy",
      "lat": 30.236,
      "lng": -81.5189
    },
    {
      "slug": "jacksonville-fl-hodges-blvd",
      "name": "Jacksonville, FL",
      "city": "Jacksonville",
      "state": "FL",
      "address": "4768 Hodges Blvd",
      "lat": 30.2545,
      "lng": -81.4673
    },
    {
      "slug": "jacksonville-fl-hyatt-rd",
      "name": "Jacksonville, FL",
      "city": "Jacksonville",
      "state": "FL",
      "address": "14011 Hyatt Rd",
      "lat": 30.4913,
      "lng": -81.6259
    },
    {
      "slug": "jacksonville-fl-monument-rd",
      "name": "Jacksonville, FL",
      "city": "Jacksonville",
      "state": "FL",
      "address": "101 Monument Rd",
      "lat": 30.3237,
      "lng": -81.5463
    },
    {
      "slug": "jacksonville-fl-parramore-rd",
      "name": "Jacksonville, FL",
      "city": "Jacksonville",
      "state": "FL",
      "address": "7923 Parramore Rd",
      "lat": 30.2038,
      "lng": -81.7575
    },
    {
      "slug": "jensen-beach-fl-nw-federal-hwy",
      "name": "Jensen Beach, FL",
      "city": "Jensen Beach",
      "state": "FL",
      "address": "4151 NW Federal Hwy",
      "lat": 27.2564,
      "lng": -80.2786
    },
    {
      "slug": "jupiter-fl-military-trl",
      "name": "Jupiter, FL",
      "city": "Jupiter",
      "state": "FL",
      "address": "1108 Military Trl",
      "lat": 26.9204,
      "lng": -80.1027
    },
    {
      "slug": "kissimmee-fl-irlo-bronson-memorial-hwy",
      "name": "Kissimmee, FL",
      "city": "Kissimmee",
      "state": "FL",
      "address": "9070 W Irlo Bronson Memorial Hwy",
      "lat": 28.3462,
      "lng": -81.6509
    },
    {
      "slug": "kissimmee-fl-orange-blossom",
      "name": "Kissimmee, FL",
      "city": "Kissimmee",
      "state": "FL",
      "address": "3148 N. Orange Blossom Trail",
      "lat": 28.3412,
      "lng": -81.4043
    },
    {
      "slug": "labelle-fl-lashley-st",
      "name": "LaBelle, FL",
      "city": "LaBelle",
      "state": "FL",
      "address": "44 Lashley St",
      "lat": 26.7609,
      "lng": -81.4483
    },
    {
      "slug": "lake-city-fl-nw-commons-loop",
      "name": "Lake City, FL",
      "city": "Lake City",
      "state": "FL",
      "address": "394 NW Commons Loop",
      "lat": 30.1799,
      "lng": -82.6644
    },
    {
      "slug": "lake-park-fl-congress-ave",
      "name": "Lake Park, FL",
      "city": "Lake Park",
      "state": "FL",
      "address": "260 N Congress Ave",
      "lat": 26.7992,
      "lng": -80.0844
    },
    {
      "slug": "lakeland-fl-s-florida-ave",
      "name": "Lakeland, FL",
      "city": "Lakeland",
      "state": "FL",
      "address": "6400 S. Florida Avenue",
      "lat": 27.9486,
      "lng": -81.9691
    },
    {
      "slug": "lakeland-fl-us-98",
      "name": "Lakeland, FL",
      "city": "Lakeland",
      "state": "FL",
      "address": "5246 US Hwy 98 N",
      "lat": 28.1107,
      "lng": -81.9742
    },
    {
      "slug": "land-o-lakes-fl-blvd",
      "name": "Land O' Lakes, FL",
      "city": "Land O' Lakes",
      "state": "FL",
      "address": "7760 Land O' Lakes Blvd",
      "lat": 28.2707,
      "lng": -82.4797
    },
    {
      "slug": "largo-fl",
      "name": "Largo, FL",
      "city": "Largo",
      "state": "FL",
      "address": "3500 E Bay Dr",
      "lat": 27.917,
      "lng": -82.7506
    },
    {
      "slug": "lecanto-fl-lecanto-hwy",
      "name": "Lecanto, FL",
      "city": "Lecanto",
      "state": "FL",
      "address": "1712 N Lecanto Hwy",
      "lat": 28.8885,
      "lng": -82.487
    },
    {
      "slug": "leesburg-fl-hwy-441",
      "name": "Leesburg, FL",
      "city": "Leesburg",
      "state": "FL",
      "address": "9423 US Hwy 441",
      "lat": 28.8282,
      "lng": -81.8014
    },
    {
      "slug": "lehigh-acres-fl-lee-blvd",
      "name": "Lehigh Acres, FL",
      "city": "Lehigh Acres",
      "state": "FL",
      "address": "2511 Lee Blvd",
      "lat": 26.6143,
      "lng": -81.6643
    },
    {
      "slug": "loxahatchee-groves-southern-blvd",
      "name": "Loxahatchee Groves, FL",
      "city": "Loxahatchee Groves",
      "state": "FL",
      "address": "15339 Southern Blvd",
      "lat": 26.6838,
      "lng": -80.2881
    },
    {
      "slug": "lutz-fl-walmart-way",
      "name": "Lutz, FL",
      "city": "Lutz",
      "state": "FL",
      "address": "21362 Walmart Way",
      "lat": 28.1764,
      "lng": -82.4644
    },
    {
      "slug": "wesley-chapel-fl-sun-vista-dr",
      "name": "Lutz, FL",
      "city": "Lutz",
      "state": "FL",
      "address": "2303 Sun Vista Dr",
      "lat": 28.1911,
      "lng": -82.3948
    },
    {
      "slug": "margate-fl-copans-rd",
      "name": "Margate, FL",
      "city": "Margate",
      "state": "FL",
      "address": "5510 W Copans Rd",
      "lat": 26.2539,
      "lng": -80.1996
    },
    {
      "slug": "melbourne-fl-n-wickham-rd",
      "name": "Melbourne, FL",
      "city": "Melbourne",
      "state": "FL",
      "address": "4611 N Wickham Rd",
      "lat": 28.1836,
      "lng": -80.6713
    },
    {
      "slug": "middleburg-fl-blanding-blvd",
      "name": "Middleburg, FL",
      "city": "Middleburg",
      "state": "FL",
      "address": "1767 Blanding Blvd",
      "lat": 30.1054,
      "lng": -81.8259
    },
    {
      "slug": "milton-fl-us-hwy-90",
      "name": "Milton, FL",
      "city": "Milton",
      "state": "FL",
      "address": "6389 US Hwy 90",
      "lat": 30.6103,
      "lng": -87.0563
    },
    {
      "slug": "mt-dora-us-highway-441",
      "name": "Mount Dora, FL",
      "city": "Mount Dora",
      "state": "FL",
      "address": "18996 US Highway 441",
      "lat": 28.8234,
      "lng": -81.6413
    },
    {
      "slug": "naples-fl-airport-pulling",
      "name": "Naples, FL",
      "city": "Naples",
      "state": "FL",
      "address": "5775 Airport Pulling Rd N",
      "lat": 26.2164,
      "lng": -81.7689
    },
    {
      "slug": "naples-fl-immokalee-rd",
      "name": "Naples, FL",
      "city": "Naples",
      "state": "FL",
      "address": "8940 Sage Ave",
      "lat": 26.2742,
      "lng": -81.6842
    },
    {
      "slug": "naples-fl-tamiami-trl",
      "name": "Naples, FL",
      "city": "Naples",
      "state": "FL",
      "address": "5102 Tamiami Trail East",
      "lat": 26.1054,
      "lng": -81.7473
    },
    {
      "slug": "navarre-fl",
      "name": "Navarre, FL",
      "city": "Navarre",
      "state": "FL",
      "address": "8792 Navarre Pkwy",
      "lat": 30.4038,
      "lng": -86.8551
    },
    {
      "slug": "new-smyrna-beach-state-road-44",
      "name": "New Smyrna Beach, FL",
      "city": "New Smyrna Beach",
      "state": "FL",
      "address": "2679 State Road 44",
      "lat": 29.0135,
      "lng": -80.9774
    },
    {
      "slug": "north-port-fl-tuscola-blvd",
      "name": "North Port, FL",
      "city": "North Port",
      "state": "FL",
      "address": "5648 Tuscola Blvd",
      "lat": 27.0407,
      "lng": -82.2253
    },
    {
      "slug": "ocala-fl-silver-springs-blvd",
      "name": "Ocala, FL",
      "city": "Ocala",
      "state": "FL",
      "address": "3637 W Silver Springs Blvd",
      "lat": 29.187,
      "lng": -82.1833
    },
    {
      "slug": "ocala-fl-sw-college-rd",
      "name": "Ocala, FL",
      "city": "Ocala",
      "state": "FL",
      "address": "4836 SW College Rd",
      "lat": 29.1344,
      "lng": -82.2001
    },
    {
      "slug": "trinity-fl-fl54",
      "name": "Odessa, FL",
      "city": "Odessa",
      "state": "FL",
      "address": "12538 State Road 54",
      "lat": 28.1908,
      "lng": -82.6078
    },
    {
      "slug": "okeechobee-fl-ne-park-st",
      "name": "Okeechobee, FL",
      "city": "Okeechobee",
      "state": "FL",
      "address": "1225 NE Park St",
      "lat": 27.2443,
      "lng": -80.8177
    },
    {
      "slug": "narcoossee-rd-orlando-fl",
      "name": "Orlando, FL",
      "city": "Orlando",
      "state": "FL",
      "address": "11978 Narcoossee Rd",
      "lat": 28.3907,
      "lng": -81.245
    },
    {
      "slug": "orlando-fl-east-colonial-dr",
      "name": "Orlando, FL",
      "city": "Orlando",
      "state": "FL",
      "address": "13320 East Colonial Dr.",
      "lat": 28.5646,
      "lng": -81.1841
    },
    {
      "slug": "orlando-fl-millenia-blvd",
      "name": "Orlando, FL",
      "city": "Orlando",
      "state": "FL",
      "address": "4591 Power Center Ln",
      "lat": 28.4946,
      "lng": -81.422
    },
    {
      "slug": "ormond-beach-fl-granada-blvd",
      "name": "Ormond Beach, FL",
      "city": "Ormond Beach",
      "state": "FL",
      "address": "655 W Granada Blvd",
      "lat": 29.2796,
      "lng": -81.0736
    },
    {
      "slug": "oviedo-fl-mitchell-hammock",
      "name": "Oviedo, FL",
      "city": "Oviedo",
      "state": "FL",
      "address": "889 W Mitchell Hammock Rd",
      "lat": 28.6561,
      "lng": -81.2227
    },
    {
      "slug": "palm-coast-fl-e-hwy-100",
      "name": "Palm Coast, FL",
      "city": "Palm Coast",
      "state": "FL",
      "address": "5055 E Hwy 100",
      "lat": 29.4749,
      "lng": -81.2203
    },
    {
      "slug": "palmetto-fl-us-301",
      "name": "Palmetto, FL",
      "city": "Palmetto",
      "state": "FL",
      "address": "1801 US 301 N",
      "lat": 27.5207,
      "lng": -82.5457
    },
    {
      "slug": "panama-city-fl-s-tyndall-pkwy",
      "name": "Panama City, FL",
      "city": "Panama City",
      "state": "FL",
      "address": "604 S Tyndall Pkwy",
      "lat": 30.1369,
      "lng": -85.5915
    },
    {
      "slug": "panama-city-beach-fl-panama-city-beach-pkwy",
      "name": "Panama City Beach, FL",
      "city": "Panama City Beach",
      "state": "FL",
      "address": "11501 Panama City Beach Pkwy",
      "lat": 30.1967,
      "lng": -85.8148
    },
    {
      "slug": "parrish-fl-us-hwy-301",
      "name": "Parrish, FL",
      "city": "Parrish",
      "state": "FL",
      "address": "10824 US Hwy 301 N",
      "lat": 27.5562,
      "lng": -82.4527
    },
    {
      "slug": "pensacola-fl-bayou-blvd",
      "name": "Pensacola, FL",
      "city": "Pensacola",
      "state": "FL",
      "address": "4400 Bayou Blvd",
      "lat": 30.4676,
      "lng": -87.205
    },
    {
      "slug": "pensacola-fl-boesch-ln",
      "name": "Pensacola, FL",
      "city": "Pensacola",
      "state": "FL",
      "address": "8880 Boesch Ln",
      "lat": 30.5243,
      "lng": -87.3142
    },
    {
      "slug": "pensacola-fl-mobile-hwy",
      "name": "Pensacola, FL",
      "city": "Pensacola",
      "state": "FL",
      "address": "6032 Mobile Hwy",
      "lat": 30.4627,
      "lng": -87.3014
    },
    {
      "slug": "pinellas-park-fl-park-blvd",
      "name": "Pinellas Park, FL",
      "city": "Pinellas Park",
      "state": "FL",
      "address": "4702 Park Blvd N",
      "lat": 27.8388,
      "lng": -82.6982
    },
    {
      "slug": "plant-city-n-park-rd-fl",
      "name": "Plant City, FL",
      "city": "Plant City",
      "state": "FL",
      "address": "2103 N Park Rd",
      "lat": 28.0333,
      "lng": -82.1056
    },
    {
      "slug": "port-charlotte-el-jobean-rd",
      "name": "Port Charlotte, FL",
      "city": "Port Charlotte",
      "state": "FL",
      "address": "1140 El Jobean Rd",
      "lat": 27.0107,
      "lng": -82.1506
    },
    {
      "slug": "port-charlotte-fl",
      "name": "Port Charlotte, FL",
      "city": "Port Charlotte",
      "state": "FL",
      "address": "385 Kings Hwy",
      "lat": 27.0228,
      "lng": -82.0472
    },
    {
      "slug": "port-orange-fl-dunlawton",
      "name": "Port Orange, FL",
      "city": "Port Orange",
      "state": "FL",
      "address": "1744 Dunlawton Avenue",
      "lat": 29.1112,
      "lng": -81.0249
    },
    {
      "slug": "port-richey-fl",
      "name": "Port Richey, FL",
      "city": "Port Richey",
      "state": "FL",
      "address": "8425 U.S. HWY 19",
      "lat": 28.2802,
      "lng": -82.7184
    },
    {
      "slug": "port-st-lucie-fl-tradition-pkwy",
      "name": "Port St. Lucie, FL",
      "city": "Port St. Lucie",
      "state": "FL",
      "address": "10770 SW Tradition Pkwy",
      "lat": 27.2639,
      "lng": -80.4343
    },
    {
      "slug": "punta-gorda-loop-road",
      "name": "Punta Gorda, FL",
      "city": "Punta Gorda",
      "state": "FL",
      "address": "26440 Jones Loop Rd",
      "lat": 26.8953,
      "lng": -82.0104
    },
    {
      "slug": "riverview-fl-big-bend-rd",
      "name": "Riverview, FL",
      "city": "Riverview",
      "state": "FL",
      "address": "10721 Big Bend Rd",
      "lat": 27.7918,
      "lng": -82.3311
    },
    {
      "slug": "riverview-fl-boyette-rd",
      "name": "Riverview, FL",
      "city": "Riverview",
      "state": "FL",
      "address": "11620 Boyette Rd",
      "lat": 27.8541,
      "lng": -82.3046
    },
    {
      "slug": "ruskin-fl-30th-st",
      "name": "Ruskin, FL",
      "city": "Ruskin",
      "state": "FL",
      "address": "547 30th St SE",
      "lat": 27.7142,
      "lng": -82.3947
    },
    {
      "slug": "sanford-fl-orlando-dr",
      "name": "Sanford, FL",
      "city": "Sanford",
      "state": "FL",
      "address": "3418 S Orlando Dr",
      "lat": 28.7646,
      "lng": -81.2845
    },
    {
      "slug": "sarasota-fl-cattlemen",
      "name": "Sarasota, FL",
      "city": "Sarasota",
      "state": "FL",
      "address": "90 Cattlemen Rd",
      "lat": 27.3361,
      "lng": -82.4509
    },
    {
      "slug": "sarasota-fl-tamiami-trl",
      "name": "Sarasota, FL",
      "city": "Sarasota",
      "state": "FL",
      "address": "7250 S. Tamiami Trail",
      "lat": 27.2496,
      "lng": -82.5141
    },
    {
      "slug": "sarasota-fl-university",
      "name": "Sarasota, FL",
      "city": "Sarasota",
      "state": "FL",
      "address": "2605 University Parkway",
      "lat": 27.3896,
      "lng": -82.518
    },
    {
      "slug": "sebring-fl-us-hwy-27",
      "name": "Sebring, FL",
      "city": "Sebring",
      "state": "FL",
      "address": "2651 US Hwy 27 S",
      "lat": 27.472,
      "lng": -81.4484
    },
    {
      "slug": "seminole-fl-park-blvd",
      "name": "Seminole, FL",
      "city": "Seminole",
      "state": "FL",
      "address": "10425 Park Blvd",
      "lat": 27.84,
      "lng": -82.7838
    },
    {
      "slug": "spring-hill-fl-county-line-rd",
      "name": "Spring Hill, FL",
      "city": "Spring Hill",
      "state": "FL",
      "address": "16300 County Line Rd",
      "lat": 28.4332,
      "lng": -82.5458
    },
    {
      "slug": "st-augustine-fl-stratton-blvd",
      "name": "St. Augustine, FL",
      "city": "St. Augustine",
      "state": "FL",
      "address": "2620 Stratton Blvd",
      "lat": 29.915,
      "lng": -81.3866
    },
    {
      "slug": "st-augustine-hwy-1",
      "name": "St. Augustine, FL",
      "city": "St. Augustine",
      "state": "FL",
      "address": "3433 US Hwy 1",
      "lat": 29.8312,
      "lng": -81.323
    },
    {
      "slug": "st-cloud-florida-irlo-bronson",
      "name": "St. Cloud, FL",
      "city": "St. Cloud",
      "state": "FL",
      "address": "1050 E Irlo Bronson Hwy",
      "lat": 28.2454,
      "lng": -81.257
    },
    {
      "slug": "st-johns-fl-fountains-way",
      "name": "St. Johns, FL",
      "city": "St. Johns",
      "state": "FL",
      "address": "45 Fountains Way",
      "lat": 30.0676,
      "lng": -81.4944
    },
    {
      "slug": "st-petersburg-fl-34th-st",
      "name": "St. Petersburg, FL",
      "city": "St. Petersburg",
      "state": "FL",
      "address": "1451 34th St N",
      "lat": 27.7862,
      "lng": -82.6789
    },
    {
      "slug": "st-petersburg-fl-4th-st",
      "name": "St. Petersburg, FL",
      "city": "St. Petersburg",
      "state": "FL",
      "address": "9046 4th St N",
      "lat": 27.8549,
      "lng": -82.6392
    },
    {
      "slug": "stuart-fl-kanner-hwy",
      "name": "Stuart, FL",
      "city": "Stuart",
      "state": "FL",
      "address": "2501 S Kanner Hwy",
      "lat": 27.1745,
      "lng": -80.2522
    },
    {
      "slug": "tallahassee-fl-executive-center-dr",
      "name": "Tallahassee, FL",
      "city": "Tallahassee",
      "state": "FL",
      "address": "1311 Executive Center Dr",
      "lat": 30.4267,
      "lng": -84.2352
    },
    {
      "slug": "tallahassee-fl-monroe-st",
      "name": "Tallahassee, FL",
      "city": "Tallahassee",
      "state": "FL",
      "address": "2439 N Monroe St",
      "lat": 30.4736,
      "lng": -84.2924
    },
    {
      "slug": "tallahassee-fl-wolfpack-way",
      "name": "Tallahassee, FL",
      "city": "Tallahassee",
      "state": "FL",
      "address": "3425 Wolfpack Way",
      "lat": 30.5678,
      "lng": -84.2117
    },
    {
      "slug": "tamarac-fl-w-commercial-blvd",
      "name": "Tamarac, FL",
      "city": "Tamarac",
      "state": "FL",
      "address": "8251 W. Commercial Blvd",
      "lat": 26.1942,
      "lng": -80.2605
    },
    {
      "slug": "brandon-fl-falkenburg-rd",
      "name": "Tampa, FL",
      "city": "Tampa",
      "state": "FL",
      "address": "2470 S Falkenburg Rd",
      "lat": 27.9264,
      "lng": -82.3374
    },
    {
      "slug": "carrollwood-fl-dale-mabry-hwy",
      "name": "Tampa, FL",
      "city": "Tampa",
      "state": "FL",
      "address": "10902 N Dale Mabry Hwy",
      "lat": 28.0478,
      "lng": -82.5051
    },
    {
      "slug": "tampa-fl-citrus-park-dr",
      "name": "Tampa, FL",
      "city": "Tampa",
      "state": "FL",
      "address": "8410 Citrus Park Dr",
      "lat": 28.0656,
      "lng": -82.5775
    },
    {
      "slug": "tampa-fl-hillsborough",
      "name": "Tampa, FL",
      "city": "Tampa",
      "state": "FL",
      "address": "8106 W. Hillsborough Ave",
      "lat": 27.9962,
      "lng": -82.5722
    },
    {
      "slug": "tampa-fl-nebraska",
      "name": "Tampa, FL",
      "city": "Tampa",
      "state": "FL",
      "address": "15003 North Nebraska Avenue",
      "lat": 28.0883,
      "lng": -82.451
    },
    {
      "slug": "the-villages-fl-county-rd-466",
      "name": "The Villages, FL",
      "city": "The Villages",
      "state": "FL",
      "address": "3390 Wedgewood Ln",
      "lat": 28.9278,
      "lng": -82.0119
    },
    {
      "slug": "titusville-fl-cheney-highway",
      "name": "Titusville, FL",
      "city": "Titusville",
      "state": "FL",
      "address": "2855 Cheney Highway",
      "lat": 28.5576,
      "lng": -80.8378
    },
    {
      "slug": "venice-fl-tamiami-trail",
      "name": "Venice, FL",
      "city": "Venice",
      "state": "FL",
      "address": "1735 S Tamiami Trail",
      "lat": 27.0721,
      "lng": -82.4224
    },
    {
      "slug": "venice-fl-times-cir",
      "name": "Venice, FL",
      "city": "Venice",
      "state": "FL",
      "address": "19355 Times Circle",
      "lat": 27.1051,
      "lng": -82.3837
    },
    {
      "slug": "viera-fl-lake-andrew-dr",
      "name": "Viera, FL",
      "city": "Viera",
      "state": "FL",
      "address": "6451 Lake Andrew Dr",
      "lat": 28.2463,
      "lng": -80.7294
    },
    {
      "slug": "wesley-chapel-fl-wiregrass",
      "name": "Wesley Chapel, FL",
      "city": "Wesley Chapel",
      "state": "FL",
      "address": "28831 State Rd 56",
      "lat": 28.1917,
      "lng": -82.3403
    },
    {
      "slug": "west-melbourne-palm-bay-rd",
      "name": "West Melbourne, FL",
      "city": "West Melbourne",
      "state": "FL",
      "address": "4355 Norfolk Pkwy",
      "lat": 28.0362,
      "lng": -80.6603
    },
    {
      "slug": "wildwood-fl-sundance-trail",
      "name": "Wildwood, FL",
      "city": "Wildwood",
      "state": "FL",
      "address": "5327 Sundance Trl",
      "lat": 28.866,
      "lng": -82.0149
    },
    {
      "slug": "winter-garden-fl-colonial-dr",
      "name": "Winter Garden, FL",
      "city": "Winter Garden",
      "state": "FL",
      "address": "13649 W Colonial Dr",
      "lat": 28.5516,
      "lng": -81.5858
    },
    {
      "slug": "winter-haven-cypress-gardens-blvd",
      "name": "Winter Haven, FL",
      "city": "Winter Haven",
      "state": "FL",
      "address": "888 Cypress Gardens Blvd",
      "lat": 28.0036,
      "lng": -81.7152
    },
    {
      "slug": "yulee-fl-state-road",
      "name": "Yulee, FL",
      "city": "Yulee",
      "state": "FL",
      "address": "463731 SR 200",
      "lat": 30.6286,
      "lng": -81.5548
    },
    {
      "slug": "zephyrhills-fl-gall-blvd",
      "name": "Zephyrhills, FL",
      "city": "Zephyrhills",
      "state": "FL",
      "address": "6386 Gall Blvd",
      "lat": 28.2504,
      "lng": -82.1876
    },
    {
      "slug": "acworth-ga-hwy-92",
      "name": "Acworth, GA",
      "city": "Acworth",
      "state": "GA",
      "address": "1275 Hwy 92",
      "lat": 34.0848,
      "lng": -84.6554
    },
    {
      "slug": "bethlehem-ga-loganville-hwy",
      "name": "Bethlehem, GA",
      "city": "Bethlehem",
      "state": "GA",
      "address": "819 Loganville Hwy",
      "lat": 33.9498,
      "lng": -83.7514
    },
    {
      "slug": "braselton-ga-old-winder",
      "name": "Braselton, GA",
      "city": "Braselton",
      "state": "GA",
      "address": "2660 Old Winder Hwy",
      "lat": 34.1197,
      "lng": -83.8264
    },
    {
      "slug": "buford-ga-buford-dr",
      "name": "Buford, GA",
      "city": "Buford",
      "state": "GA",
      "address": "2924 Buford Dr",
      "lat": 34.0535,
      "lng": -83.9952
    },
    {
      "slug": "canton-ga-hickory-flat-hwy",
      "name": "Canton, GA",
      "city": "Canton",
      "state": "GA",
      "address": "6778 Hickory Flat Hwy",
      "lat": 34.1703,
      "lng": -84.4148
    },
    {
      "slug": "cartersville-ga-hwy-20",
      "name": "Cartersville, GA",
      "city": "Cartersville",
      "state": "GA",
      "address": "4000 GA-20",
      "lat": 34.2068,
      "lng": -84.7966
    },
    {
      "slug": "columbus-midland-commons-blvd",
      "name": "Columbus, GA",
      "city": "Columbus",
      "state": "GA",
      "address": "6851 Midland Commons Blvd",
      "lat": 32.5437,
      "lng": -84.8756
    },
    {
      "slug": "commerce-ga-hwy-441",
      "name": "Commerce, GA",
      "city": "Commerce",
      "state": "GA",
      "address": "110 Grove Creek Point",
      "lat": 34.2605,
      "lng": -83.4652
    },
    {
      "slug": "cumming-ga-bethelview-rd",
      "name": "Cumming, GA",
      "city": "Cumming",
      "state": "GA",
      "address": "5512 Bethelview Rd",
      "lat": 34.172,
      "lng": -84.1867
    },
    {
      "slug": "dawsonville-ga-center-ln",
      "name": "Dawsonville, GA",
      "city": "Dawsonville",
      "state": "GA",
      "address": "252 S 400 Center Ln",
      "lat": 34.3609,
      "lng": -84.0415
    },
    {
      "slug": "gainesville-ga-dawsonville-hwy",
      "name": "Gainesville, GA",
      "city": "Gainesville",
      "state": "GA",
      "address": "1260 Dawsonville Hwy NE",
      "lat": 34.3047,
      "lng": -83.8597
    },
    {
      "slug": "grovetown-ga-gateway-blvd",
      "name": "Grovetown, GA",
      "city": "Grovetown",
      "state": "GA",
      "address": "4020 Gateway Blvd",
      "lat": 33.4795,
      "lng": -82.1965
    },
    {
      "slug": "jasper-ga-noah-dr",
      "name": "Jasper, GA",
      "city": "Jasper",
      "state": "GA",
      "address": "955 Noah Dr",
      "lat": 34.4728,
      "lng": -84.4619
    },
    {
      "slug": "kennesaw-ga-due-west-road",
      "name": "Kennesaw, GA",
      "city": "Kennesaw",
      "state": "GA",
      "address": "2460 Kennesaw Due West Rd",
      "lat": 34.0141,
      "lng": -84.6151
    },
    {
      "slug": "lawrenceville-ga-scenic-hwy-sw",
      "name": "Lawrenceville, GA",
      "city": "Lawrenceville",
      "state": "GA",
      "address": "1133 Scenic Hwy S",
      "lat": 33.9065,
      "lng": -84.0041
    },
    {
      "slug": "macon-ga-northside-dr",
      "name": "Macon, GA",
      "city": "Macon",
      "state": "GA",
      "address": "3710 Northside Dr",
      "lat": 32.8963,
      "lng": -83.691
    },
    {
      "slug": "mcdonough-ga-hwy-81",
      "name": "McDonough, GA",
      "city": "McDonough",
      "state": "GA",
      "address": "90 Hwy 81 W",
      "lat": 33.4265,
      "lng": -84.1847
    },
    {
      "slug": "newnan-ga-newnan-crossing-byp",
      "name": "Newnan, GA",
      "city": "Newnan",
      "state": "GA",
      "address": "311 Newnan Crossing Bypass",
      "lat": 33.3901,
      "lng": -84.7619
    },
    {
      "slug": "pooler-ga-tanger-blvd",
      "name": "Pooler, GA",
      "city": "Pooler",
      "state": "GA",
      "address": "121 Tanger Outlet Blvd",
      "lat": 32.1365,
      "lng": -81.2466
    },
    {
      "slug": "rockmart-ga-nathan-dean-pkwy",
      "name": "Rockmart, GA",
      "city": "Rockmart",
      "state": "GA",
      "address": "1939 Nathan Dean Pkwy",
      "lat": 34.0108,
      "lng": -85.0298
    },
    {
      "slug": "savannah-ga-montgomery-cross-rd",
      "name": "Savannah, GA",
      "city": "Savannah",
      "state": "GA",
      "address": "333 W Montgomery Crossroad",
      "lat": 32.0011,
      "lng": -81.1363
    },
    {
      "slug": "sugar-hill-ga-peachtree-industrial",
      "name": "Sugar Hill, GA",
      "city": "Sugar Hill",
      "state": "GA",
      "address": "230 Peachtree Industrial Blvd",
      "lat": 34.0803,
      "lng": -84.0582
    },
    {
      "slug": "johns-creek-ga-peachtree",
      "name": "Suwanee, GA",
      "city": "Suwanee",
      "state": "GA",
      "address": "3135 Peachtree Pkwy",
      "lat": 34.0869,
      "lng": -84.1632
    },
    {
      "slug": "valdosta-ga-n-valdosta-rd",
      "name": "Valdosta, GA",
      "city": "Valdosta",
      "state": "GA",
      "address": "4135 N Valdosta Rd",
      "lat": 30.8966,
      "lng": -83.3278
    },
    {
      "slug": "warner-robins-ga-hwy-96",
      "name": "Warner Robins, GA",
      "city": "Warner Robins",
      "state": "GA",
      "address": "780 Hwy 96",
      "lat": 32.5522,
      "lng": -83.6613
    },
    {
      "slug": "woodstock-ga-hwy-92",
      "name": "Woodstock, GA",
      "city": "Woodstock",
      "state": "GA",
      "address": "11799 Hwy 92",
      "lat": 34.0885,
      "lng": -84.4912
    },
    {
      "slug": "altoona",
      "name": "Altoona, IA",
      "city": "Altoona",
      "state": "IA",
      "address": "2535 Adventureland Drive",
      "lat": 41.6598,
      "lng": -93.4929
    },
    {
      "slug": "ames",
      "name": "Ames, IA",
      "city": "Ames",
      "state": "IA",
      "address": "525 Gilchrist Avenue",
      "lat": 42.0238,
      "lng": -93.6187
    },
    {
      "slug": "ankeny",
      "name": "Ankeny, IA",
      "city": "Ankeny",
      "state": "IA",
      "address": "2305 S. E. Delaware Ave.",
      "lat": 41.7077,
      "lng": -93.5806
    },
    {
      "slug": "ankeny-ia-nw36th-st",
      "name": "Ankeny, IA",
      "city": "Ankeny",
      "state": "IA",
      "address": "255 NW 36th St",
      "lat": 41.7604,
      "lng": -93.6041
    },
    {
      "slug": "bettendorf-ia",
      "name": "Bettendorf, IA",
      "city": "Bettendorf",
      "state": "IA",
      "address": "2312 Spruce Hills Drive",
      "lat": 41.5497,
      "lng": -90.5016
    },
    {
      "slug": "burlington-ia",
      "name": "Burlington, IA",
      "city": "Burlington",
      "state": "IA",
      "address": "919 Lawrence Drive",
      "lat": 40.799,
      "lng": -91.1409
    },
    {
      "slug": "carroll-ia",
      "name": "Carroll, IA",
      "city": "Carroll",
      "state": "IA",
      "address": "405 W US Highway 30",
      "lat": 42.0666,
      "lng": -94.872
    },
    {
      "slug": "cedar-falls-ia",
      "name": "Cedar Falls, IA",
      "city": "Cedar Falls",
      "state": "IA",
      "address": "401 Viking Plaza Drive",
      "lat": 42.4835,
      "lng": -92.4423
    },
    {
      "slug": "cedar-rapids",
      "name": "Cedar Rapids, IA",
      "city": "Cedar Rapids",
      "state": "IA",
      "address": "2405 Edgewood Road SW",
      "lat": 41.9546,
      "lng": -91.7155
    },
    {
      "slug": "cedar-rapids-ia-earhart-ln-sw",
      "name": "Cedar Rapids, IA",
      "city": "Cedar Rapids",
      "state": "IA",
      "address": "9060 Earhart Ln SW",
      "lat": 41.8901,
      "lng": -91.6681
    },
    {
      "slug": "clear-lake",
      "name": "Clear Lake, IA",
      "city": "Clear Lake",
      "state": "IA",
      "address": "1204 N. 25th St.",
      "lat": 43.1473,
      "lng": -93.3588
    },
    {
      "slug": "clinton",
      "name": "Clinton, IA",
      "city": "Clinton",
      "state": "IA",
      "address": "2625 Lincoln Way",
      "lat": 41.8148,
      "lng": -90.249
    },
    {
      "slug": "coralville",
      "name": "Coralville, IA",
      "city": "Coralville",
      "state": "IA",
      "address": "2591 Heartland Place",
      "lat": 41.7001,
      "lng": -91.6092
    },
    {
      "slug": "council-bluffs",
      "name": "Council Bluffs, IA",
      "city": "Council Bluffs",
      "state": "IA",
      "address": "3245 South 24th Street",
      "lat": 41.2296,
      "lng": -95.8786
    },
    {
      "slug": "davenport-jersey",
      "name": "Davenport, IA",
      "city": "Davenport",
      "state": "IA",
      "address": "5320 Jersey Ridge Road",
      "lat": 41.5757,
      "lng": -90.5424
    },
    {
      "slug": "davenport-kimberly-road",
      "name": "Davenport, IA",
      "city": "Davenport",
      "state": "IA",
      "address": "3400 W. Kimberly Road",
      "lat": 41.5609,
      "lng": -90.6264
    },
    {
      "slug": "decorah",
      "name": "Decorah, IA",
      "city": "Decorah",
      "state": "IA",
      "address": "904 Short Street",
      "lat": 43.2923,
      "lng": -91.7969
    },
    {
      "slug": "des-moines",
      "name": "Des Moines, IA",
      "city": "Des Moines",
      "state": "IA",
      "address": "5941 SE 14th Street",
      "lat": 41.5318,
      "lng": -93.596
    },
    {
      "slug": "dubuque",
      "name": "Dubuque, IA",
      "city": "Dubuque",
      "state": "IA",
      "address": "4800 Asbury Rd.",
      "lat": 42.5159,
      "lng": -90.7419
    },
    {
      "slug": "fort-dodge",
      "name": "Fort Dodge, IA",
      "city": "Fort Dodge",
      "state": "IA",
      "address": "3048 5th Ave. South",
      "lat": 42.5018,
      "lng": -94.1535
    },
    {
      "slug": "grimes-ia-1st-st",
      "name": "Grimes, IA",
      "city": "Grimes",
      "state": "IA",
      "address": "1601 E 1st St",
      "lat": 41.6892,
      "lng": -93.7773
    },
    {
      "slug": "hiawatha",
      "name": "Hiawatha, IA",
      "city": "Hiawatha",
      "state": "IA",
      "address": "1005 N. Center Point Rd.",
      "lat": 42.0483,
      "lng": -91.6832
    },
    {
      "slug": "iowa-city-ia",
      "name": "Iowa City, IA",
      "city": "Iowa City",
      "state": "IA",
      "address": "710 Highway 1 West",
      "lat": 41.6481,
      "lng": -91.5494
    },
    {
      "slug": "marion",
      "name": "Marion, IA",
      "city": "Marion",
      "state": "IA",
      "address": "1375 Red Fox Way",
      "lat": 42.0386,
      "lng": -91.5512
    },
    {
      "slug": "marshalltown",
      "name": "Marshalltown, IA",
      "city": "Marshalltown",
      "state": "IA",
      "address": "16 Iowa Avenue West",
      "lat": 42.0062,
      "lng": -92.9146
    },
    {
      "slug": "mason-city",
      "name": "Mason City, IA",
      "city": "Mason City",
      "state": "IA",
      "address": "551 S. Monroe Avenue",
      "lat": 43.1468,
      "lng": -93.2083
    },
    {
      "slug": "muscatine",
      "name": "Muscatine, IA",
      "city": "Muscatine",
      "state": "IA",
      "address": "3604 University Drive",
      "lat": 41.4599,
      "lng": -91.0188
    },
    {
      "slug": "newton",
      "name": "Newton, IA",
      "city": "Newton",
      "state": "IA",
      "address": "1650 W. 19th Street S.",
      "lat": 41.6849,
      "lng": -93.0787
    },
    {
      "slug": "north-liberty-ia-lininger-ln",
      "name": "North Liberty, IA",
      "city": "North Liberty",
      "state": "IA",
      "address": "2300 Lininger Ln",
      "lat": 41.7529,
      "lng": -91.6356
    },
    {
      "slug": "norwalk-ia-hughes-dr",
      "name": "Norwalk, IA",
      "city": "Norwalk",
      "state": "IA",
      "address": "1801 Hughes Dr",
      "lat": 41.4844,
      "lng": -93.6735
    },
    {
      "slug": "ottumwa-ia-venture",
      "name": "Ottumwa, IA",
      "city": "Ottumwa",
      "state": "IA",
      "address": "1801 Venture Drive",
      "lat": 41.0163,
      "lng": -92.4526
    },
    {
      "slug": "pella-ia",
      "name": "Pella, IA",
      "city": "Pella",
      "state": "IA",
      "address": "1512 Washington Street",
      "lat": 41.4105,
      "lng": -92.9318
    },
    {
      "slug": "sioux-center",
      "name": "Sioux Center, IA",
      "city": "Sioux Center",
      "state": "IA",
      "address": "1913 S. Main Ave",
      "lat": 43.057,
      "lng": -96.1776
    },
    {
      "slug": "sioux-city",
      "name": "Sioux City, IA",
      "city": "Sioux City",
      "state": "IA",
      "address": "3102 Singing Hills Boulevard",
      "lat": 42.4352,
      "lng": -96.3675
    },
    {
      "slug": "sioux-city-ia-hamilton",
      "name": "Sioux City, IA",
      "city": "Sioux City",
      "state": "IA",
      "address": "2420 Hamilton Blvd",
      "lat": 42.516,
      "lng": -96.4163
    },
    {
      "slug": "urbandale",
      "name": "Urbandale, IA",
      "city": "Urbandale",
      "state": "IA",
      "address": "8660 Plum Drive",
      "lat": 41.6482,
      "lng": -93.7385
    },
    {
      "slug": "waterloo",
      "name": "Waterloo, IA",
      "city": "Waterloo",
      "state": "IA",
      "address": "209 E. Tower Park Drive",
      "lat": 42.4567,
      "lng": -92.3526
    },
    {
      "slug": "waukee-ia-hickman-rd",
      "name": "Waukee, IA",
      "city": "Waukee",
      "state": "IA",
      "address": "455 E Hickman Rd",
      "lat": 41.6156,
      "lng": -93.8631
    },
    {
      "slug": "west-des-moines-22nd",
      "name": "West Des Moines, IA",
      "city": "West Des Moines",
      "state": "IA",
      "address": "1820 22nd Street",
      "lat": 41.5994,
      "lng": -93.7369
    },
    {
      "slug": "west-des-moines-jordan",
      "name": "West Des Moines, IA",
      "city": "West Des Moines",
      "state": "IA",
      "address": "1101 Jordan Creek Parkway",
      "lat": 41.586,
      "lng": -93.8081
    },
    {
      "slug": "ammon-id-25th-east",
      "name": "Ammon, ID",
      "city": "Ammon",
      "state": "ID",
      "address": "3701 E 25th S",
      "lat": 43.4644,
      "lng": -111.9837
    },
    {
      "slug": "idaho-falls-id-pancheri-dr",
      "name": "Idaho Falls, ID",
      "city": "Idaho Falls",
      "state": "ID",
      "address": "946 Pancheri Dr",
      "lat": 43.4888,
      "lng": -112.0516
    },
    {
      "slug": "meridian-id-ustick-rd",
      "name": "Meridian, ID",
      "city": "Meridian",
      "state": "ID",
      "address": "3494 E Tecate Ln",
      "lat": 43.6335,
      "lng": -116.351
    },
    {
      "slug": "twin-falls-id",
      "name": "Twin Falls, ID",
      "city": "Twin Falls",
      "state": "ID",
      "address": "163 Pole Line Rd",
      "lat": 42.5923,
      "lng": -114.4779
    },
    {
      "slug": "addison",
      "name": "Addison, IL",
      "city": "Addison",
      "state": "IL",
      "address": "1347 W. Lake Street",
      "lat": 41.9444,
      "lng": -88.0215
    },
    {
      "slug": "antioch",
      "name": "Antioch, IL",
      "city": "Antioch",
      "state": "IL",
      "address": "451 East Route 173",
      "lat": 42.4668,
      "lng": -88.0657
    },
    {
      "slug": "arlington-heights",
      "name": "Arlington Heights, IL",
      "city": "Arlington Heights",
      "state": "IL",
      "address": "2060 Northwest Hwy",
      "lat": 42.0729,
      "lng": -87.9568
    },
    {
      "slug": "aurora",
      "name": "Aurora, IL",
      "city": "Aurora",
      "state": "IL",
      "address": "509 South Route 59",
      "lat": 41.7483,
      "lng": -88.2067
    },
    {
      "slug": "bartlett-il-route-59",
      "name": "Bartlett, IL",
      "city": "Bartlett",
      "state": "IL",
      "address": "1430 S Illinois Route 59",
      "lat": 41.9534,
      "lng": -88.206
    },
    {
      "slug": "batavia-il-randall-rd",
      "name": "Batavia, IL",
      "city": "Batavia",
      "state": "IL",
      "address": "470 N Randall Rd",
      "lat": 41.858,
      "lng": -88.3399
    },
    {
      "slug": "belvidere",
      "name": "Belvidere, IL",
      "city": "Belvidere",
      "state": "IL",
      "address": "1635 Big Thunder Blvd.",
      "lat": 42.2724,
      "lng": -88.858
    },
    {
      "slug": "berwyn",
      "name": "Berwyn, IL",
      "city": "Berwyn",
      "state": "IL",
      "address": "6943 W. Roosevelt Road",
      "lat": 41.8649,
      "lng": -87.7986
    },
    {
      "slug": "bloomingdale-il-schick-rd",
      "name": "Bloomingdale, IL",
      "city": "Bloomingdale",
      "state": "IL",
      "address": "455 W Schick Rd",
      "lat": 41.9535,
      "lng": -88.1226
    },
    {
      "slug": "bloomington-hershey",
      "name": "Bloomington, IL",
      "city": "Bloomington",
      "state": "IL",
      "address": "901 Hershey Road",
      "lat": 40.4865,
      "lng": -88.9427
    },
    {
      "slug": "bloomington-market",
      "name": "Bloomington, IL",
      "city": "Bloomington",
      "state": "IL",
      "address": "1807 W. Market Street",
      "lat": 40.4845,
      "lng": -89.0211
    },
    {
      "slug": "bolingbrook",
      "name": "Bolingbrook, IL",
      "city": "Bolingbrook",
      "state": "IL",
      "address": "250 N. Bolingbrook Drive",
      "lat": 41.703,
      "lng": -88.0678
    },
    {
      "slug": "bourbonnais",
      "name": "Bourbonnais, IL",
      "city": "Bourbonnais",
      "state": "IL",
      "address": "983 North Convent Street",
      "lat": 41.1697,
      "lng": -87.8761
    },
    {
      "slug": "bradley-il-route-50",
      "name": "Bourbonnais, IL",
      "city": "Bourbonnais",
      "state": "IL",
      "address": "2061 N State Route 50",
      "lat": 41.1896,
      "lng": -87.8512
    },
    {
      "slug": "bridgeview",
      "name": "Bridgeview, IL",
      "city": "Bridgeview",
      "state": "IL",
      "address": "9229 S Harlem Ave",
      "lat": 41.7241,
      "lng": -87.7981
    },
    {
      "slug": "buffalo-grove",
      "name": "Buffalo Grove, IL",
      "city": "Buffalo Grove",
      "state": "IL",
      "address": "450 McHenry Road",
      "lat": 42.1612,
      "lng": -87.9622
    },
    {
      "slug": "carbondale-il-reed-station-rd",
      "name": "Carbondale, IL",
      "city": "Carbondale",
      "state": "IL",
      "address": "2401 Reed Station Pkwy",
      "lat": 37.744,
      "lng": -89.1603
    },
    {
      "slug": "carol-stream",
      "name": "Carol Stream, IL",
      "city": "Carol Stream",
      "state": "IL",
      "address": "290 Schmale Road",
      "lat": 41.8963,
      "lng": -88.1029
    },
    {
      "slug": "carpentersville",
      "name": "Carpentersville, IL",
      "city": "Carpentersville",
      "state": "IL",
      "address": "8000 Miller Road",
      "lat": 42.1219,
      "lng": -88.3371
    },
    {
      "slug": "champaign-marketview",
      "name": "Champaign, IL",
      "city": "Champaign",
      "state": "IL",
      "address": "903 West Marketview",
      "lat": 40.1378,
      "lng": -88.2597
    },
    {
      "slug": "champaign-neil",
      "name": "Champaign, IL",
      "city": "Champaign",
      "state": "IL",
      "address": "2302 S. Neil Street",
      "lat": 40.0855,
      "lng": -88.2461
    },
    {
      "slug": "chicago-il-3355-s-martin-luther-king-dr",
      "name": "Chicago, IL",
      "city": "Chicago",
      "state": "IL",
      "address": "3355 S Martin Luther King Dr",
      "lat": 41.8333,
      "lng": -87.6164
    },
    {
      "slug": "chicago-il-cicero-ave",
      "name": "Chicago, IL",
      "city": "Chicago",
      "state": "IL",
      "address": "6541 S Cicero Ave",
      "lat": 41.7737,
      "lng": -87.7418
    },
    {
      "slug": "chicago-il-doty-ave",
      "name": "Chicago, IL",
      "city": "Chicago",
      "state": "IL",
      "address": "11050 S Doty Ave W",
      "lat": 41.6932,
      "lng": -87.6014
    },
    {
      "slug": "chicago-il-montrose-ave",
      "name": "Chicago, IL",
      "city": "Chicago",
      "state": "IL",
      "address": "1819 W Montrose Ave",
      "lat": 41.9614,
      "lng": -87.6754
    },
    {
      "slug": "chicago-il-w-irving-park-rd",
      "name": "Chicago, IL",
      "city": "Chicago",
      "state": "IL",
      "address": "4939 W Irving Park Rd",
      "lat": 41.9531,
      "lng": -87.7516
    },
    {
      "slug": "chicago-jpstc-w-chicago-ave",
      "name": "Chicago, IL",
      "city": "Chicago",
      "state": "IL",
      "address": "4347 W Chicago Avenue",
      "lat": 41.895,
      "lng": -87.7351
    },
    {
      "slug": "chicago-w-peterson-ave",
      "name": "Chicago, IL",
      "city": "Chicago",
      "state": "IL",
      "address": "6012 N Albany Ave",
      "lat": 41.9908,
      "lng": -87.7071
    },
    {
      "slug": "wrigleyville-il-w-addison",
      "name": "Chicago, IL",
      "city": "Chicago",
      "state": "IL",
      "address": "1111 W Addison St",
      "lat": 41.9469,
      "lng": -87.6575
    },
    {
      "slug": "collinsville",
      "name": "Collinsville, IL",
      "city": "Collinsville",
      "state": "IL",
      "address": "100 United Drive",
      "lat": 38.6889,
      "lng": -90.0097
    },
    {
      "slug": "crestwood-il",
      "name": "Crestwood, IL",
      "city": "Crestwood",
      "state": "IL",
      "address": "13300 Cicero Ave",
      "lat": 41.6503,
      "lng": -87.7388
    },
    {
      "slug": "crete",
      "name": "Crete, IL",
      "city": "Crete",
      "state": "IL",
      "address": "23180 Volbrecht Road",
      "lat": 41.4687,
      "lng": -87.5759
    },
    {
      "slug": "crystal-lake",
      "name": "Crystal Lake, IL",
      "city": "Crystal Lake",
      "state": "IL",
      "address": "400 Pingree Road",
      "lat": 42.2295,
      "lng": -88.297
    },
    {
      "slug": "danville-il",
      "name": "Danville, IL",
      "city": "Danville",
      "state": "IL",
      "address": "3210 North Vermilion Street",
      "lat": 40.1758,
      "lng": -87.6306
    },
    {
      "slug": "darien",
      "name": "Darien, IL",
      "city": "Darien",
      "state": "IL",
      "address": "541 Plainfield Road",
      "lat": 41.7544,
      "lng": -87.9596
    },
    {
      "slug": "decatur-aldi",
      "name": "Decatur, IL",
      "city": "Decatur",
      "state": "IL",
      "address": "4850 E. Aldi Drive",
      "lat": 39.8177,
      "lng": -88.8802
    },
    {
      "slug": "decatur-water-street",
      "name": "Decatur, IL",
      "city": "Decatur",
      "state": "IL",
      "address": "2994 N Water Street",
      "lat": 39.8763,
      "lng": -88.9545
    },
    {
      "slug": "dekalb-il",
      "name": "Dekalb, IL",
      "city": "Dekalb",
      "state": "IL",
      "address": "1262 W Lincoln Hwy",
      "lat": 41.9304,
      "lng": -88.7774
    },
    {
      "slug": "diamond-il-e-division-st",
      "name": "Diamond, IL",
      "city": "Diamond",
      "state": "IL",
      "address": "2701 E Division St",
      "lat": 41.2881,
      "lng": -88.2463
    },
    {
      "slug": "dixon",
      "name": "Dixon, IL",
      "city": "Dixon",
      "state": "IL",
      "address": "1317 N. Galena Avenue",
      "lat": 41.8611,
      "lng": -89.4987
    },
    {
      "slug": "downers-grove",
      "name": "Downers Grove, IL",
      "city": "Downers Grove",
      "state": "IL",
      "address": "2500 West Ogden Ave",
      "lat": 41.8056,
      "lng": -88.0464
    },
    {
      "slug": "east-peoria",
      "name": "East Peoria, IL",
      "city": "East Peoria",
      "state": "IL",
      "address": "901 Camp Street",
      "lat": 40.6805,
      "lng": -89.5882
    },
    {
      "slug": "edwardsville",
      "name": "Edwardsville, IL",
      "city": "Edwardsville",
      "state": "IL",
      "address": "6724 Old Troy Rd.",
      "lat": 38.7808,
      "lng": -89.948
    },
    {
      "slug": "effingham",
      "name": "Effingham, IL",
      "city": "Effingham",
      "state": "IL",
      "address": "1510 W. Fayette Avenue",
      "lat": 39.1213,
      "lng": -88.5628
    },
    {
      "slug": "elgin-il-mclean-blvd",
      "name": "Elgin, IL",
      "city": "Elgin",
      "state": "IL",
      "address": "1175 N McLean Blvd",
      "lat": 42.0622,
      "lng": -88.3151
    },
    {
      "slug": "elmhurst-il-n-york-st",
      "name": "Elmhurst, IL",
      "city": "Elmhurst",
      "state": "IL",
      "address": "436 N York St",
      "lat": 41.9113,
      "lng": -87.9402
    },
    {
      "slug": "elmwood-park-il-w-grand-ave",
      "name": "Elmwood Park, IL",
      "city": "Elmwood Park",
      "state": "IL",
      "address": "7542 W Grand Ave",
      "lat": 41.9258,
      "lng": -87.8157
    },
    {
      "slug": "evergreen-park-il",
      "name": "Evergreen Park, IL",
      "city": "Evergreen Park",
      "state": "IL",
      "address": "9515 S. Kedzie Ave",
      "lat": 41.7199,
      "lng": -87.7014
    },
    {
      "slug": "fox-lake-il-hwy-12",
      "name": "Fox Lake, IL",
      "city": "Fox Lake",
      "state": "IL",
      "address": "100 S US Hwy 12",
      "lat": 42.3899,
      "lng": -88.181
    },
    {
      "slug": "fox-river-grove-il-northwest-hwy",
      "name": "Fox River Grove, IL",
      "city": "Fox River Grove",
      "state": "IL",
      "address": "514 Northwest Hwy",
      "lat": 42.1965,
      "lng": -88.2154
    },
    {
      "slug": "frankfort",
      "name": "Frankfort, IL",
      "city": "Frankfort",
      "state": "IL",
      "address": "20592 S La Grange Rd",
      "lat": 41.5172,
      "lng": -87.8505
    },
    {
      "slug": "franklin-park",
      "name": "Franklin Park, IL",
      "city": "Franklin Park",
      "state": "IL",
      "address": "2751 Rose Street",
      "lat": 41.9287,
      "lng": -87.8644
    },
    {
      "slug": "freeport",
      "name": "Freeport, IL",
      "city": "Freeport",
      "state": "IL",
      "address": "1690 Dirck Drive",
      "lat": 42.2807,
      "lng": -89.6344
    },
    {
      "slug": "galena",
      "name": "Galena, IL",
      "city": "Galena",
      "state": "IL",
      "address": "11371 Oldenburg Lane",
      "lat": 42.4362,
      "lng": -90.4503
    },
    {
      "slug": "galesburg-il-n-henderson-st",
      "name": "Galesburg, IL",
      "city": "Galesburg",
      "state": "IL",
      "address": "1330 N Henderson St",
      "lat": 40.9639,
      "lng": -90.3838
    },
    {
      "slug": "geneseo",
      "name": "Geneseo, IL",
      "city": "Geneseo",
      "state": "IL",
      "address": "1275 S Oakwood Ave",
      "lat": 41.4349,
      "lng": -90.1586
    },
    {
      "slug": "glenview-il-waukegan-rd",
      "name": "Glenview, IL",
      "city": "Glenview",
      "state": "IL",
      "address": "1727 Waukegan Rd",
      "lat": 42.0867,
      "lng": -87.7977
    },
    {
      "slug": "grayslake",
      "name": "GraysLake, IL",
      "city": "GraysLake",
      "state": "IL",
      "address": "1239 N. Route 83",
      "lat": 42.366,
      "lng": -88.0418
    },
    {
      "slug": "gurnee",
      "name": "Gurnee, IL",
      "city": "Gurnee",
      "state": "IL",
      "address": "1505 Nations Drive",
      "lat": 42.3811,
      "lng": -87.9409
    },
    {
      "slug": "harvard-il-division-st",
      "name": "Harvard, IL",
      "city": "Harvard",
      "state": "IL",
      "address": "1060 S Division St",
      "lat": 42.405,
      "lng": -88.6128
    },
    {
      "slug": "harwood-heights-il-n-harlem-ave",
      "name": "Harwood Heights, IL",
      "city": "Harwood Heights",
      "state": "IL",
      "address": "4538 N Harlem Ave",
      "lat": 41.963,
      "lng": -87.8077
    },
    {
      "slug": "hoffman-estates-il-hoffman-blvd",
      "name": "Hoffman Estates, IL",
      "city": "Hoffman Estates",
      "state": "IL",
      "address": "4635 Hoffman Blvd",
      "lat": 42.069,
      "lng": -88.194
    },
    {
      "slug": "homer-glen-il-143rd",
      "name": "Homer Glen, IL",
      "city": "Homer Glen",
      "state": "IL",
      "address": "12712 W 143rd St",
      "lat": 41.6295,
      "lng": -87.9294
    },
    {
      "slug": "homewood",
      "name": "Homewood, IL",
      "city": "Homewood",
      "state": "IL",
      "address": "850 W. 183rd Street",
      "lat": 41.558,
      "lng": -87.6382
    },
    {
      "slug": "huntley",
      "name": "Huntley, IL",
      "city": "Huntley",
      "state": "IL",
      "address": "12950 Route 47",
      "lat": 42.1445,
      "lng": -88.4321
    },
    {
      "slug": "island-lake",
      "name": "Island Lake, IL",
      "city": "Island Lake",
      "state": "IL",
      "address": "203 E. State Rd.",
      "lat": 42.2715,
      "lng": -88.1964
    },
    {
      "slug": "joliet",
      "name": "Joliet, IL",
      "city": "Joliet",
      "state": "IL",
      "address": "1500 Illinois Hwy 59",
      "lat": 41.5488,
      "lng": -88.199
    },
    {
      "slug": "joliet-il-larkin-ave",
      "name": "Joliet, IL",
      "city": "Joliet",
      "state": "IL",
      "address": "219 S. Larkin Ave",
      "lat": 41.5179,
      "lng": -88.1252
    },
    {
      "slug": "lake-zurich",
      "name": "Lake Zurich, IL",
      "city": "Lake Zurich",
      "state": "IL",
      "address": "645 N. Rand Road",
      "lat": 42.2074,
      "lng": -88.1124
    },
    {
      "slug": "lake-in-the-hills",
      "name": "Lake in the Hills, IL",
      "city": "Lake in the Hills",
      "state": "IL",
      "address": "251 N Randall Rd",
      "lat": 42.1786,
      "lng": -88.3348
    },
    {
      "slug": "lansing-il",
      "name": "Lansing, IL",
      "city": "Lansing",
      "state": "IL",
      "address": "17010 Torrence Avenue",
      "lat": 41.5862,
      "lng": -87.56
    },
    {
      "slug": "libertyville",
      "name": "Libertyville, IL",
      "city": "Libertyville",
      "state": "IL",
      "address": "803 E. Park Avenue",
      "lat": 42.2814,
      "lng": -87.9395
    },
    {
      "slug": "lincoln-il",
      "name": "Lincoln, IL",
      "city": "Lincoln",
      "state": "IL",
      "address": "2530 Woodlawn Road",
      "lat": 40.1585,
      "lng": -89.4026
    },
    {
      "slug": "lincolnshire-il-milwaukee-ave",
      "name": "Lincolnshire, IL",
      "city": "Lincolnshire",
      "state": "IL",
      "address": "405 Milwaukee Ave",
      "lat": 42.2,
      "lng": -87.9322
    },
    {
      "slug": "lockport-il",
      "name": "Lockport, IL",
      "city": "Lockport",
      "state": "IL",
      "address": "15940 South Farrell Road",
      "lat": 41.5966,
      "lng": -88.0271
    },
    {
      "slug": "lombard",
      "name": "Lombard, IL",
      "city": "Lombard",
      "state": "IL",
      "address": "1155 S. Main Street",
      "lat": 41.8613,
      "lng": -88.0169
    },
    {
      "slug": "lyons",
      "name": "Lyons, IL",
      "city": "Lyons",
      "state": "IL",
      "address": "8211 W. Ogden Avenue",
      "lat": 41.8159,
      "lng": -87.8264
    },
    {
      "slug": "mahomet-il-patton-dr",
      "name": "Mahomet, IL",
      "city": "Mahomet",
      "state": "IL",
      "address": "2006 Patton Dr",
      "lat": 40.1842,
      "lng": -88.3665
    },
    {
      "slug": "marion-il-blue-heron-dr",
      "name": "Marion, IL",
      "city": "Marion",
      "state": "IL",
      "address": "2605 Blue Heron Dr",
      "lat": 37.7451,
      "lng": -88.9611
    },
    {
      "slug": "matteson",
      "name": "Matteson, IL",
      "city": "Matteson",
      "state": "IL",
      "address": "20716 Cicero Ave",
      "lat": 41.5124,
      "lng": -87.7332
    },
    {
      "slug": "mchenry",
      "name": "McHenry, IL",
      "city": "McHenry",
      "state": "IL",
      "address": "1101 Adams Drive",
      "lat": 42.343,
      "lng": -88.2497
    },
    {
      "slug": "minooka",
      "name": "Minooka, IL",
      "city": "Minooka",
      "state": "IL",
      "address": "2063 Ridge Road",
      "lat": 41.4217,
      "lng": -88.2708
    },
    {
      "slug": "moline",
      "name": "Moline, IL",
      "city": "Moline",
      "state": "IL",
      "address": "4011 38th Avenue",
      "lat": 41.4726,
      "lng": -90.4773
    },
    {
      "slug": "monee-il",
      "name": "Monee, IL",
      "city": "Monee",
      "state": "IL",
      "address": "5871 W Monee Manhattan Rd",
      "lat": 41.4264,
      "lng": -87.7536
    },
    {
      "slug": "morris",
      "name": "Morris, IL",
      "city": "Morris",
      "state": "IL",
      "address": "1919 N. Division Street",
      "lat": 41.3823,
      "lng": -88.4214
    },
    {
      "slug": "morton",
      "name": "Morton, IL",
      "city": "Morton",
      "state": "IL",
      "address": "121 East Courtland Street",
      "lat": 40.6291,
      "lng": -89.4638
    },
    {
      "slug": "morton-grove",
      "name": "Morton Grove, IL",
      "city": "Morton Grove",
      "state": "IL",
      "address": "7310 Dempster",
      "lat": 42.0411,
      "lng": -87.8098
    },
    {
      "slug": "mt-vernon-il-veterans-memorial",
      "name": "Mount Vernon, IL",
      "city": "Mount Vernon",
      "state": "IL",
      "address": "1105 S 42nd St",
      "lat": 38.3018,
      "lng": -88.9427
    },
    {
      "slug": "mt-prospect",
      "name": "Mt. Prospect, IL",
      "city": "Mt. Prospect",
      "state": "IL",
      "address": "1501 W. Dempster Street",
      "lat": 42.0365,
      "lng": -87.9587
    },
    {
      "slug": "mundelein",
      "name": "Mundelein, IL",
      "city": "Mundelein",
      "state": "IL",
      "address": "220 Oak Creek Plaza",
      "lat": 42.2402,
      "lng": -87.9877
    },
    {
      "slug": "naperville-il-naper-blvd",
      "name": "Naperville, IL",
      "city": "Naperville",
      "state": "IL",
      "address": "1515 N Naper Blvd",
      "lat": 41.7974,
      "lng": -88.1203
    },
    {
      "slug": "new-lenox",
      "name": "New Lenox, IL",
      "city": "New Lenox",
      "state": "IL",
      "address": "421 E. Lincoln Highway",
      "lat": 41.5127,
      "lng": -87.9559
    },
    {
      "slug": "north-aurora",
      "name": "North Aurora, IL",
      "city": "North Aurora",
      "state": "IL",
      "address": "411 S. Lincolnway St",
      "lat": 41.7904,
      "lng": -88.3215
    },
    {
      "slug": "northbrook-il-dundee-rd",
      "name": "Northbrook, IL",
      "city": "Northbrook",
      "state": "IL",
      "address": "4105 Dundee Rd",
      "lat": 42.1381,
      "lng": -87.8819
    },
    {
      "slug": "ofallon-il",
      "name": "O'Fallon, IL",
      "city": "O'Fallon",
      "state": "IL",
      "address": "1702 W. Highway 50",
      "lat": 38.593,
      "lng": -89.9575
    },
    {
      "slug": "oak-forest-il-159st",
      "name": "Oak Forest, IL",
      "city": "Oak Forest",
      "state": "IL",
      "address": "5410 W. 159th St.",
      "lat": 41.6035,
      "lng": -87.7515
    },
    {
      "slug": "oak-lawn-il-cicero-ave",
      "name": "Oak Lawn, IL",
      "city": "Oak Lawn",
      "state": "IL",
      "address": "10745 S Cicero Ave",
      "lat": 41.6967,
      "lng": -87.7394
    },
    {
      "slug": "orland-park",
      "name": "Orland Park, IL",
      "city": "Orland Park",
      "state": "IL",
      "address": "9130 159th Street",
      "lat": 41.6019,
      "lng": -87.842
    },
    {
      "slug": "oswego",
      "name": "Oswego, IL",
      "city": "Oswego",
      "state": "IL",
      "address": "2781 Route 34",
      "lat": 41.7009,
      "lng": -88.3151
    },
    {
      "slug": "ottawa",
      "name": "Ottawa, IL",
      "city": "Ottawa",
      "state": "IL",
      "address": "3001 Fairfield Lane",
      "lat": 41.3736,
      "lng": -88.8353
    },
    {
      "slug": "palatine",
      "name": "Palatine, IL",
      "city": "Palatine",
      "state": "IL",
      "address": "1765 N. Rand Road",
      "lat": 42.1427,
      "lng": -88.0245
    },
    {
      "slug": "pekin",
      "name": "Pekin, IL",
      "city": "Pekin",
      "state": "IL",
      "address": "3500 Court Street",
      "lat": 40.5427,
      "lng": -89.5985
    },
    {
      "slug": "peoria-holiday",
      "name": "Peoria, IL",
      "city": "Peoria",
      "state": "IL",
      "address": "5019 West Holiday Drive",
      "lat": 40.7751,
      "lng": -89.6725
    },
    {
      "slug": "peoria-il-n-centerway-dr",
      "name": "Peoria, IL",
      "city": "Peoria",
      "state": "IL",
      "address": "10500 N Centerway Dr",
      "lat": 40.8165,
      "lng": -89.6139
    },
    {
      "slug": "peoria-university",
      "name": "Peoria, IL",
      "city": "Peoria",
      "state": "IL",
      "address": "4612 N. University Ave.",
      "lat": 40.744,
      "lng": -89.6119
    },
    {
      "slug": "peru",
      "name": "Peru, IL",
      "city": "Peru",
      "state": "IL",
      "address": "1600 Midtown Road",
      "lat": 41.3472,
      "lng": -89.1242
    },
    {
      "slug": "plainfield-il",
      "name": "Plainfield, IL",
      "city": "Plainfield",
      "state": "IL",
      "address": "13449 S. Illinois Route 59",
      "lat": 41.6377,
      "lng": -88.2023
    },
    {
      "slug": "plano-il-lakeside-rd",
      "name": "Plano, IL",
      "city": "Plano",
      "state": "IL",
      "address": "6400 Lakeside Road",
      "lat": 41.6554,
      "lng": -88.5611
    },
    {
      "slug": "princeton",
      "name": "Princeton, IL",
      "city": "Princeton",
      "state": "IL",
      "address": "224 Ace Road",
      "lat": 41.3949,
      "lng": -89.4643
    },
    {
      "slug": "quincy-il",
      "name": "Quincy, IL",
      "city": "Quincy",
      "state": "IL",
      "address": "2442 Broadway Street",
      "lat": 39.9351,
      "lng": -91.3759
    },
    {
      "slug": "rantoul-il-champaign-ave",
      "name": "Rantoul, IL",
      "city": "Rantoul",
      "state": "IL",
      "address": "640 W Champaign Ave",
      "lat": 40.3086,
      "lng": -88.172
    },
    {
      "slug": "rochelle",
      "name": "Rochelle, IL",
      "city": "Rochelle",
      "state": "IL",
      "address": "1060 Dement Road",
      "lat": 41.9317,
      "lng": -89.0349
    },
    {
      "slug": "rock-falls",
      "name": "Rock Falls, IL",
      "city": "Rock Falls",
      "state": "IL",
      "address": "1901 Harley Davidson Dr.",
      "lat": 41.763,
      "lng": -89.689
    },
    {
      "slug": "rockford-benington",
      "name": "Rockford, IL",
      "city": "Rockford",
      "state": "IL",
      "address": "1224 Bennington Road",
      "lat": 42.3178,
      "lng": -89.0789
    },
    {
      "slug": "rockford-phelps",
      "name": "Rockford, IL",
      "city": "Rockford",
      "state": "IL",
      "address": "236 North Phelps Avenue",
      "lat": 42.2674,
      "lng": -89.0055
    },
    {
      "slug": "rockford-riverside",
      "name": "Rockford, IL",
      "city": "Rockford",
      "state": "IL",
      "address": "6727 E Riverside Blvd",
      "lat": 42.3181,
      "lng": -88.9852
    },
    {
      "slug": "rockford-wansford",
      "name": "Rockford, IL",
      "city": "Rockford",
      "state": "IL",
      "address": "5610 Wansford Way",
      "lat": 42.2379,
      "lng": -89.0074
    },
    {
      "slug": "romeoville",
      "name": "Romeoville, IL",
      "city": "Romeoville",
      "state": "IL",
      "address": "485 N. Weber Road",
      "lat": 41.6425,
      "lng": -88.1227
    },
    {
      "slug": "roscoe",
      "name": "Roscoe, IL",
      "city": "Roscoe",
      "state": "IL",
      "address": "9779 N. Second Street",
      "lat": 42.402,
      "lng": -89.0103
    },
    {
      "slug": "rosemont",
      "name": "Rosemont, IL",
      "city": "Rosemont",
      "state": "IL",
      "address": "7050 Mannheim Road",
      "lat": 42.0079,
      "lng": -87.8857
    },
    {
      "slug": "schaumburg-algonquin",
      "name": "Schaumburg, IL",
      "city": "Schaumburg",
      "state": "IL",
      "address": "1410 E. Algonquin Rd",
      "lat": 42.0686,
      "lng": -88.0428
    },
    {
      "slug": "schaumburg-wise",
      "name": "Schaumburg, IL",
      "city": "Schaumburg",
      "state": "IL",
      "address": "1800 Wise Road",
      "lat": 42.0042,
      "lng": -88.1244
    },
    {
      "slug": "silvis-il-22nd-ave",
      "name": "Silvis, IL",
      "city": "Silvis",
      "state": "IL",
      "address": "608 22nd Ave",
      "lat": 41.488,
      "lng": -90.4202
    },
    {
      "slug": "skokie-il-skokie-blvd",
      "name": "Skokie, IL",
      "city": "Skokie",
      "state": "IL",
      "address": "9455 N Skokie Blvd",
      "lat": 42.0528,
      "lng": -87.7439
    },
    {
      "slug": "south-elgin",
      "name": "South Elgin, IL",
      "city": "South Elgin",
      "state": "IL",
      "address": "280 Randall Road",
      "lat": 41.9892,
      "lng": -88.3428
    },
    {
      "slug": "springfield-dirksen-pkwy",
      "name": "Springfield, IL",
      "city": "Springfield",
      "state": "IL",
      "address": "2540 N. Dirksen Parkway",
      "lat": 39.8381,
      "lng": -89.6037
    },
    {
      "slug": "springfield-wabash",
      "name": "Springfield, IL",
      "city": "Springfield",
      "state": "IL",
      "address": "4400 Wabash Avenue",
      "lat": 39.7558,
      "lng": -89.7325
    },
    {
      "slug": "st-charles-il",
      "name": "St. Charles, IL",
      "city": "St. Charles",
      "state": "IL",
      "address": "4068 East Main Street",
      "lat": 41.922,
      "lng": -88.2553
    },
    {
      "slug": "st-charles-il-randall-rd",
      "name": "St. Charles, IL",
      "city": "St. Charles",
      "state": "IL",
      "address": "111 S Randall Rd",
      "lat": 41.9107,
      "lng": -88.3408
    },
    {
      "slug": "sugar-grove-il-sugar-grove-pkwy",
      "name": "Sugar Grove, IL",
      "city": "Sugar Grove",
      "state": "IL",
      "address": "412 N Sugar Grove Pkwy",
      "lat": 41.7729,
      "lng": -88.4435
    },
    {
      "slug": "sycamore",
      "name": "Sycamore, IL",
      "city": "Sycamore",
      "state": "IL",
      "address": "1200 De Kalb Avenue",
      "lat": 41.9815,
      "lng": -88.7043
    },
    {
      "slug": "tilton-il-georgetown-rd",
      "name": "Tilton, IL",
      "city": "Tilton",
      "state": "IL",
      "address": "1506 Georgetown Rd",
      "lat": 40.1006,
      "lng": -87.6363
    },
    {
      "slug": "tinley-park",
      "name": "Tinley Park, IL",
      "city": "Tinley Park",
      "state": "IL",
      "address": "18248 Sayre Avenue",
      "lat": 41.5592,
      "lng": -87.7888
    },
    {
      "slug": "urbana-il-w-university-ave",
      "name": "Urbana, IL",
      "city": "Urbana",
      "state": "IL",
      "address": "201 W University Ave",
      "lat": 40.1161,
      "lng": -88.2095
    },
    {
      "slug": "warrenville-illinois-rte-59",
      "name": "Warrenville, IL",
      "city": "Warrenville",
      "state": "IL",
      "address": "3S525 IL-59",
      "lat": 41.8174,
      "lng": -88.204
    },
    {
      "slug": "washington-il-n-cummings-ln",
      "name": "Washington, IL",
      "city": "Washington",
      "state": "IL",
      "address": "115 N Cummings Ln",
      "lat": 40.7063,
      "lng": -89.445
    },
    {
      "slug": "waukegan-il-s-waukegan-rd",
      "name": "Waukegan, IL",
      "city": "Waukegan",
      "state": "IL",
      "address": "850 S Waukegan Rd",
      "lat": 42.3442,
      "lng": -87.8959
    },
    {
      "slug": "wheaton-il-roosevelt-rd",
      "name": "Wheaton, IL",
      "city": "Wheaton",
      "state": "IL",
      "address": "908 E Roosevelt Rd",
      "lat": 41.8586,
      "lng": -88.0934
    },
    {
      "slug": "winnebago",
      "name": "Winnebago, IL",
      "city": "Winnebago",
      "state": "IL",
      "address": "807 Cannell-Puri Dr",
      "lat": 42.279,
      "lng": -89.2424
    },
    {
      "slug": "woodstock",
      "name": "Woodstock, IL",
      "city": "Woodstock",
      "state": "IL",
      "address": "1620 W. Lake Shore Drive",
      "lat": 42.2907,
      "lng": -88.4163
    },
    {
      "slug": "yorkville",
      "name": "Yorkville, IL",
      "city": "Yorkville",
      "state": "IL",
      "address": "1745 Marketview Drive",
      "lat": 41.6633,
      "lng": -88.4415
    },
    {
      "slug": "zion",
      "name": "Zion, IL",
      "city": "Zion",
      "state": "IL",
      "address": "3335 Sheridan Road",
      "lat": 42.4338,
      "lng": -87.8251
    },
    {
      "slug": "cedar-lake-in-w-133rd-ave",
      "name": "Cedar Lake, IN",
      "city": "Cedar Lake",
      "state": "IN",
      "address": "9717 W 133rd Ave",
      "lat": 41.3768,
      "lng": -87.4536
    },
    {
      "slug": "crown-point-in",
      "name": "Crown Point, IN",
      "city": "Crown Point",
      "state": "IN",
      "address": "1800 E. Summit Street",
      "lat": 41.428,
      "lng": -87.3373
    },
    {
      "slug": "evansville-in-w-lloyd-expy",
      "name": "Evansville, IN",
      "city": "Evansville",
      "state": "IN",
      "address": "4850 W Lloyd Expy",
      "lat": 37.9762,
      "lng": -87.6343
    },
    {
      "slug": "hammond-in",
      "name": "Hammond, IN",
      "city": "Hammond",
      "state": "IN",
      "address": "7905 Cabela Dr",
      "lat": 41.57,
      "lng": -87.4788
    },
    {
      "slug": "highland-in",
      "name": "Highland, IN",
      "city": "Highland",
      "state": "IN",
      "address": "3950 Ridge Road",
      "lat": 41.5511,
      "lng": -87.4331
    },
    {
      "slug": "schererville",
      "name": "Schererville, IN",
      "city": "Schererville",
      "state": "IN",
      "address": "980 West Lincoln Hwy",
      "lat": 41.4912,
      "lng": -87.4751
    },
    {
      "slug": "st-johns-indiana",
      "name": "St. John, IN",
      "city": "St. John",
      "state": "IN",
      "address": "9845 Wicker Ave",
      "lat": 41.4401,
      "lng": -87.4694
    },
    {
      "slug": "terre-haute-in-south-street-rd",
      "name": "Terre Haute, IN",
      "city": "Terre Haute",
      "state": "IN",
      "address": "5530 E New Margaret Dr",
      "lat": 39.4428,
      "lng": -87.3323
    },
    {
      "slug": "terre-haute-s-us-hwy",
      "name": "Terre Haute, IN",
      "city": "Terre Haute",
      "state": "IN",
      "address": "4141 South US HWY 41",
      "lat": 39.418,
      "lng": -87.417
    },
    {
      "slug": "vincennes-in-executive-blvd",
      "name": "Vincennes, IN",
      "city": "Vincennes",
      "state": "IN",
      "address": "7 Executive Blvd",
      "lat": 38.6949,
      "lng": -87.4974
    },
    {
      "slug": "paducah-ky-old-hwy-60",
      "name": "Paducah, KY",
      "city": "Paducah",
      "state": "KY",
      "address": "5450 Old Hwy 60 W",
      "lat": 37.0711,
      "lng": -88.7038
    },
    {
      "slug": "iron-mountain-mi-stephenson-ave",
      "name": "Iron Mountain, MI",
      "city": "Iron Mountain",
      "state": "MI",
      "address": "2015 S. Stephenson Ave.",
      "lat": 45.8102,
      "lng": -88.0355
    },
    {
      "slug": "austin",
      "name": "Austin, MN",
      "city": "Austin",
      "state": "MN",
      "address": "1800 8th Street NW",
      "lat": 43.6836,
      "lng": -92.9844
    },
    {
      "slug": "cottage-grove",
      "name": "Cottage Grove, MN",
      "city": "Cottage Grove",
      "state": "MN",
      "address": "7998 Hardwood Ave S.",
      "lat": 44.8341,
      "lng": -92.9617
    },
    {
      "slug": "duluth",
      "name": "Duluth, MN",
      "city": "Duluth",
      "state": "MN",
      "address": "1301 Mall Drive",
      "lat": 46.8022,
      "lng": -92.1561
    },
    {
      "slug": "eagan",
      "name": "Eagan, MN",
      "city": "Eagan",
      "state": "MN",
      "address": "3445 O'Leary Lane",
      "lat": 44.8323,
      "lng": -93.1511
    },
    {
      "slug": "forest-lake",
      "name": "Forest Lake, MN",
      "city": "Forest Lake",
      "state": "MN",
      "address": "1007 W. Broadway Ave.",
      "lat": 45.2798,
      "lng": -92.9966
    },
    {
      "slug": "hastings",
      "name": "Hastings, MN",
      "city": "Hastings",
      "state": "MN",
      "address": "1713 Market Boulevard",
      "lat": 44.737,
      "lng": -92.8908
    },
    {
      "slug": "lino-lakes-mn-otter-lake-rd",
      "name": "Lino Lakes, MN",
      "city": "Lino Lakes",
      "state": "MN",
      "address": "7103 Otter Lake Rd",
      "lat": 45.1647,
      "lng": -93.0277
    },
    {
      "slug": "red-wing",
      "name": "Red Wing, MN",
      "city": "Red Wing",
      "state": "MN",
      "address": "179 Tyler Road S",
      "lat": 44.5654,
      "lng": -92.5848
    },
    {
      "slug": "rosemount-mn-robert-trl",
      "name": "Rosemount, MN",
      "city": "Rosemount",
      "state": "MN",
      "address": "14755 S Robert Trl",
      "lat": 44.7353,
      "lng": -93.1266
    },
    {
      "slug": "st-paul",
      "name": "St. Paul, MN",
      "city": "St. Paul",
      "state": "MN",
      "address": "2065 Old Hudson Road",
      "lat": 44.9521,
      "lng": -93.0132
    },
    {
      "slug": "stillwater",
      "name": "Stillwater, MN",
      "city": "Stillwater",
      "state": "MN",
      "address": "1725 Market Drive",
      "lat": 45.0405,
      "lng": -92.84
    },
    {
      "slug": "west-st-paul",
      "name": "West St. Paul, MN",
      "city": "West St. Paul",
      "state": "MN",
      "address": "125 Marie Avenue East",
      "lat": 44.8913,
      "lng": -93.0794
    },
    {
      "slug": "white-bear-lake-mn-white-bear-ave",
      "name": "White Bear Lake, MN",
      "city": "White Bear Lake",
      "state": "MN",
      "address": "3202 White Bear Ave",
      "lat": 45.0385,
      "lng": -93.0172
    },
    {
      "slug": "winona",
      "name": "Winona, MN",
      "city": "Winona",
      "state": "MN",
      "address": "1441 Service Drive",
      "lat": 44.0471,
      "lng": -91.6765
    },
    {
      "slug": "woodbury-mn-woodbury-dr",
      "name": "Woodbury, MN",
      "city": "Woodbury",
      "state": "MN",
      "address": "520 Woodbury Drive",
      "lat": 44.9409,
      "lng": -92.9053
    },
    {
      "slug": "arnold",
      "name": "Arnold, MO",
      "city": "Arnold",
      "state": "MO",
      "address": "123 Richardson Crossing",
      "lat": 38.4132,
      "lng": -90.3838
    },
    {
      "slug": "cape-girardeau",
      "name": "Cape Girardeau, MO",
      "city": "Cape Girardeau",
      "state": "MO",
      "address": "295 North Kingshighway",
      "lat": 37.3104,
      "lng": -89.5527
    },
    {
      "slug": "chesterfield",
      "name": "Chesterfield, MO",
      "city": "Chesterfield",
      "state": "MO",
      "address": "17349 Chesterfield Airport Road",
      "lat": 38.6688,
      "lng": -90.604
    },
    {
      "slug": "crystal-city-truman-blvd",
      "name": "Crystal City, MO",
      "city": "Crystal City",
      "state": "MO",
      "address": "200 S Truman Blvd",
      "lat": 38.2175,
      "lng": -90.3852
    },
    {
      "slug": "ellisville-mo-mancheter-rd",
      "name": "Ellisville, MO",
      "city": "Ellisville",
      "state": "MO",
      "address": "15978 Manchester Rd",
      "lat": 38.5914,
      "lng": -90.5907
    },
    {
      "slug": "eureka",
      "name": "Eureka, MO",
      "city": "Eureka",
      "state": "MO",
      "address": "400 Meramec Blvd",
      "lat": 38.5067,
      "lng": -90.6338
    },
    {
      "slug": "fenton-mo",
      "name": "Fenton, MO",
      "city": "Fenton",
      "state": "MO",
      "address": "1024 Bowles Ave.",
      "lat": 38.5245,
      "lng": -90.4718
    },
    {
      "slug": "florissant-mo",
      "name": "Florissant, MO",
      "city": "Florissant",
      "state": "MO",
      "address": "975 N. US HWY 67",
      "lat": 38.7997,
      "lng": -90.3285
    },
    {
      "slug": "manchester-mo-manchester-rd",
      "name": "Manchester, MO",
      "city": "Manchester",
      "state": "MO",
      "address": "14444 Manchester Rd",
      "lat": 38.593,
      "lng": -90.5193
    },
    {
      "slug": "ofallon-mo",
      "name": "O'Fallon, MO",
      "city": "O'Fallon",
      "state": "MO",
      "address": "4351 Hwy K",
      "lat": 38.7231,
      "lng": -90.6999
    },
    {
      "slug": "ofallon-mo-mexico-rd",
      "name": "O'Fallon, MO",
      "city": "O'Fallon",
      "state": "MO",
      "address": "8500 Mexico Road",
      "lat": 38.7927,
      "lng": -90.6947
    },
    {
      "slug": "st-charles",
      "name": "St. Charles, MO",
      "city": "St. Charles",
      "state": "MO",
      "address": "2750 Muegge Road",
      "lat": 38.7892,
      "lng": -90.5653
    },
    {
      "slug": "crestwood-mo",
      "name": "St. Louis, MO",
      "city": "St. Louis",
      "state": "MO",
      "address": "10200 Big Bend Blvd",
      "lat": 38.5674,
      "lng": -90.3952
    },
    {
      "slug": "st-louis-rusty",
      "name": "St. Louis, MO",
      "city": "St. Louis",
      "state": "MO",
      "address": "4140 Rusty Road",
      "lat": 38.5105,
      "lng": -90.3397
    },
    {
      "slug": "wentzville",
      "name": "Wentzville, MO",
      "city": "Wentzville",
      "state": "MO",
      "address": "1898 Wentzville Pkwy",
      "lat": 38.8175,
      "lng": -90.8766
    },
    {
      "slug": "bellevue",
      "name": "Bellevue, NE",
      "city": "Bellevue",
      "state": "NE",
      "address": "3602 Raynor Parkway",
      "lat": 41.1479,
      "lng": -95.968
    },
    {
      "slug": "gretna-ne-191-st",
      "name": "Gretna, NE",
      "city": "Gretna",
      "state": "NE",
      "address": "11070 S. 191st St",
      "lat": 41.1494,
      "lng": -96.215
    },
    {
      "slug": "lavista",
      "name": "La Vista, NE",
      "city": "La Vista",
      "state": "NE",
      "address": "9848 Giles Road",
      "lat": 41.1767,
      "lng": -96.0665
    },
    {
      "slug": "omaha-miami",
      "name": "Omaha, NE",
      "city": "Omaha",
      "state": "NE",
      "address": "11920 Miami Street",
      "lat": 41.2826,
      "lng": -96.1002
    },
    {
      "slug": "omaha-millard",
      "name": "Omaha, NE",
      "city": "Omaha",
      "state": "NE",
      "address": "15255 Weir Plaza",
      "lat": 41.2058,
      "lng": -96.1526
    },
    {
      "slug": "omaha-ne-evans-st",
      "name": "Omaha, NE",
      "city": "Omaha",
      "state": "NE",
      "address": "17202 Evans St",
      "lat": 41.2916,
      "lng": -96.184
    },
    {
      "slug": "sioux-falls-arrowhead",
      "name": "Sioux Falls, SD",
      "city": "Sioux Falls",
      "state": "SD",
      "address": "5601 East Arrowhead Parkway",
      "lat": 43.5434,
      "lng": -96.6583
    },
    {
      "slug": "sioux-falls-empire-mall",
      "name": "Sioux Falls, SD",
      "city": "Sioux Falls",
      "state": "SD",
      "address": "770 Empire Mall",
      "lat": 43.5123,
      "lng": -96.7766
    },
    {
      "slug": "sioux-falls-louise",
      "name": "Sioux Falls, SD",
      "city": "Sioux Falls",
      "state": "SD",
      "address": "2509 S. Louise Ave.",
      "lat": 43.5232,
      "lng": -96.7735
    },
    {
      "slug": "sioux-falls-minnesota",
      "name": "Sioux Falls, SD",
      "city": "Sioux Falls",
      "state": "SD",
      "address": "2800 S. Minnesota Ave.",
      "lat": 43.5198,
      "lng": -96.7306
    },
    {
      "slug": "sioux-falls-sd-6301-s-louise-ave",
      "name": "Sioux Falls, SD",
      "city": "Sioux Falls",
      "state": "SD",
      "address": "6301 S Louise Ave",
      "lat": 43.4881,
      "lng": -96.7681
    },
    {
      "slug": "sioux-falls-sd-w-benson-rd",
      "name": "Sioux Falls, SD",
      "city": "Sioux Falls",
      "state": "SD",
      "address": "3300 W Benson Rd",
      "lat": 43.588,
      "lng": -96.7687
    },
    {
      "slug": "tea-sd-brakker-landing-ave",
      "name": "Tea, SD",
      "city": "Tea",
      "state": "SD",
      "address": "2115 Bakker Landing Ave",
      "lat": 43.463,
      "lng": -96.8022
    },
    {
      "slug": "hixson-tn-northgate-mall-dr",
      "name": "Hixson, TN",
      "city": "Hixson",
      "state": "TN",
      "address": "505 Northgate Mall Dr",
      "lat": 35.1286,
      "lng": -85.2416
    },
    {
      "slug": "antigo",
      "name": "Antigo, WI",
      "city": "Antigo",
      "state": "WI",
      "address": "2105 Neva Road",
      "lat": 45.1602,
      "lng": -89.1474
    },
    {
      "slug": "appleton",
      "name": "Appleton, WI",
      "city": "Appleton",
      "state": "WI",
      "address": "599 N. Westhill Blvd",
      "lat": 44.2677,
      "lng": -88.4615
    },
    {
      "slug": "darboy",
      "name": "Appleton, WI",
      "city": "Appleton",
      "state": "WI",
      "address": "3631 E. Calumet St.",
      "lat": 44.2431,
      "lng": -88.3525
    },
    {
      "slug": "grand-chute-wi-evergreen-dr",
      "name": "Appleton, WI",
      "city": "Appleton",
      "state": "WI",
      "address": "850 W Evergreen Dr",
      "lat": 44.3023,
      "lng": -88.4182
    },
    {
      "slug": "minocqua",
      "name": "Arbor Vitae, WI",
      "city": "Arbor Vitae",
      "state": "WI",
      "address": "123 Hwy 51 N",
      "lat": 45.8992,
      "lng": -89.6983
    },
    {
      "slug": "ashland-wi",
      "name": "Ashland, WI",
      "city": "Ashland",
      "state": "WI",
      "address": "2101 Lake Shore Drive",
      "lat": 46.6037,
      "lng": -90.8593
    },
    {
      "slug": "baldwin-wi",
      "name": "Baldwin, WI",
      "city": "Baldwin",
      "state": "WI",
      "address": "640 Baldwin Plaza Drive",
      "lat": 44.9396,
      "lng": -92.3722
    },
    {
      "slug": "baraboo",
      "name": "Baraboo, WI",
      "city": "Baraboo",
      "state": "WI",
      "address": "420 Linn Street",
      "lat": 43.4752,
      "lng": -89.7667
    },
    {
      "slug": "lake-delton",
      "name": "Baraboo, WI",
      "city": "Baraboo",
      "state": "WI",
      "address": "1070 Wisconsin Dells Parkway S",
      "lat": 43.5771,
      "lng": -89.7794
    },
    {
      "slug": "beaver-dam",
      "name": "Beaver Dam, WI",
      "city": "Beaver Dam",
      "state": "WI",
      "address": "1601 N. Spring Street",
      "lat": 43.4728,
      "lng": -88.8255
    },
    {
      "slug": "bellevue-wi-costco-way",
      "name": "Bellevue, WI",
      "city": "Bellevue",
      "state": "WI",
      "address": "2216 Costco Way",
      "lat": 44.4609,
      "lng": -87.9866
    },
    {
      "slug": "beloit",
      "name": "Beloit, WI",
      "city": "Beloit",
      "state": "WI",
      "address": "2676 Cranston Road",
      "lat": 42.5249,
      "lng": -88.988
    },
    {
      "slug": "black-river-falls",
      "name": "Black River Falls, WI",
      "city": "Black River Falls",
      "state": "WI",
      "address": "925 Commerce Street",
      "lat": 44.2942,
      "lng": -90.8262
    },
    {
      "slug": "brookfield-124th",
      "name": "Brookfield, WI",
      "city": "Brookfield",
      "state": "WI",
      "address": "3705 North 124th St.",
      "lat": 43.0854,
      "lng": -88.067
    },
    {
      "slug": "kopps-brookfield",
      "name": "Kopp's Brookfield, WI",
      "city": "Brookfield",
      "state": "WI",
      "address": "18880 W Bluemound Rd",
      "brand": "kopps",
      "lat": 43.0523,
      "lng": -88.1535
    },
    {
      "slug": "brown-deer",
      "name": "Brown Deer, WI",
      "city": "Brown Deer",
      "state": "WI",
      "address": "4327 W. Schroeder Drive",
      "lat": 43.1861,
      "lng": -87.9651
    },
    {
      "slug": "burlington",
      "name": "Burlington, WI",
      "city": "Burlington",
      "state": "WI",
      "address": "1073 Milwaukee Ave.",
      "lat": 42.6922,
      "lng": -88.2664
    },
    {
      "slug": "chippewa-falls-lake-hallie",
      "name": "Chippewa Falls, WI",
      "city": "Chippewa Falls",
      "state": "WI",
      "address": "2573 Commercial Blvd",
      "lat": 44.8833,
      "lng": -91.4182
    },
    {
      "slug": "chippewa-falls-wi-chippewa-crossing-blvd",
      "name": "Chippewa Falls, WI",
      "city": "Chippewa Falls",
      "state": "WI",
      "address": "1165 Chippewa Crossing Blvd",
      "lat": 44.9221,
      "lng": -91.3708
    },
    {
      "slug": "clintonville",
      "name": "Clintonville, WI",
      "city": "Clintonville",
      "state": "WI",
      "address": "105 S. Main Street",
      "lat": 44.6191,
      "lng": -88.7616
    },
    {
      "slug": "columbus",
      "name": "Columbus, WI",
      "city": "Columbus",
      "state": "WI",
      "address": "201 Dix Street",
      "lat": 43.3435,
      "lng": -89.0285
    },
    {
      "slug": "combined-locks-wi-martineau-rd",
      "name": "Combined Locks, WI",
      "city": "Combined Locks",
      "state": "WI",
      "address": "503 Martineau Rd",
      "lat": 44.2549,
      "lng": -88.2935
    },
    {
      "slug": "cottage-grove-wi-landmark-dr",
      "name": "Cottage Grove, WI",
      "city": "Cottage Grove",
      "state": "WI",
      "address": "1599 Landmark Dr",
      "lat": 43.1045,
      "lng": -89.1985
    },
    {
      "slug": "cross-plains",
      "name": "Cross Plains, WI",
      "city": "Cross Plains",
      "state": "WI",
      "address": "2523 Main Street",
      "lat": 43.1113,
      "lng": -89.6442
    },
    {
      "slug": "de_pere",
      "name": "De Pere, WI",
      "city": "De Pere",
      "state": "WI",
      "address": "1499 Lawrence Dr",
      "lat": 44.4339,
      "lng": -88.1054
    },
    {
      "slug": "deforest",
      "name": "DeForest, WI",
      "city": "DeForest",
      "state": "WI",
      "address": "4910 CTH V",
      "lat": 43.2509,
      "lng": -89.3746
    },
    {
      "slug": "delavan",
      "name": "Delavan, WI",
      "city": "Delavan",
      "state": "WI",
      "address": "1931 East Geneva Street",
      "lat": 42.6285,
      "lng": -88.6102
    },
    {
      "slug": "dodgeville",
      "name": "Dodgeville, WI",
      "city": "Dodgeville",
      "state": "WI",
      "address": "1122 N. Johns St.",
      "lat": 42.972,
      "lng": -90.1269
    },
    {
      "slug": "east-troy-wi-north-st",
      "name": "East Troy, WI",
      "city": "East Troy",
      "state": "WI",
      "address": "2557 North St",
      "lat": 42.7916,
      "lng": -88.3927
    },
    {
      "slug": "eau-claire-brackett",
      "name": "Eau Claire, WI",
      "city": "Eau Claire",
      "state": "WI",
      "address": "2021 Brackett Ave",
      "lat": 44.7997,
      "lng": -91.4723
    },
    {
      "slug": "eau-claire-folsom",
      "name": "Eau Claire, WI",
      "city": "Eau Claire",
      "state": "WI",
      "address": "2520 Folsom Street",
      "lat": 44.829,
      "lng": -91.5462
    },
    {
      "slug": "eau-claire-golf",
      "name": "Eau Claire, WI",
      "city": "Eau Claire",
      "state": "WI",
      "address": "4750 Golf Road",
      "lat": 44.7752,
      "lng": -91.4381
    },
    {
      "slug": "eau-claire-wi-truax-ln",
      "name": "Eau Claire, WI",
      "city": "Eau Claire",
      "state": "WI",
      "address": "6225 Truax Ln",
      "lat": 44.8426,
      "lng": -91.5942
    },
    {
      "slug": "edgerton-newville",
      "name": "Edgerton, WI",
      "city": "Edgerton",
      "state": "WI",
      "address": "571 E. Richardson Springs Road",
      "lat": 42.8326,
      "lng": -89.0255
    },
    {
      "slug": "elkhorn",
      "name": "Elkhorn, WI",
      "city": "Elkhorn",
      "state": "WI",
      "address": "1000 N. Wisconsin",
      "lat": 42.6932,
      "lng": -88.5424
    },
    {
      "slug": "elm-grove-wi",
      "name": "Elm Grove, WI",
      "city": "Elm Grove",
      "state": "WI",
      "address": "15280 W. Bluemound Road",
      "lat": 43.0365,
      "lng": -88.1037
    },
    {
      "slug": "evansville-wi-n-union-rd",
      "name": "Evansville, WI",
      "city": "Evansville",
      "state": "WI",
      "address": "60 N Union St",
      "lat": 42.7815,
      "lng": -89.2939
    },
    {
      "slug": "fond-du-lac",
      "name": "Fond du Lac, WI",
      "city": "Fond du Lac",
      "state": "WI",
      "address": "81 W. Pioneer Rd.",
      "lat": 43.7542,
      "lng": -88.4523
    },
    {
      "slug": "fond-du-lac-hwy-23",
      "name": "Fond du Lac, WI",
      "city": "Fond du Lac",
      "state": "WI",
      "address": "W6606 Hwy 23",
      "lat": 43.7839,
      "lng": -88.4874
    },
    {
      "slug": "fond-du-lac-johnson",
      "name": "Fond du Lac, WI",
      "city": "Fond du Lac",
      "state": "WI",
      "address": "969 E. Johnson Street",
      "lat": 43.7842,
      "lng": -88.4094
    },
    {
      "slug": "kraverz",
      "name": "Kraverz Fond du Lac, WI",
      "city": "Fond du Lac",
      "state": "WI",
      "address": "233 S Main St",
      "brand": "kraverz",
      "lat": 43.7719,
      "lng": -88.4468
    },
    {
      "slug": "fort-atkinson",
      "name": "Fort Atkinson, WI",
      "city": "Fort Atkinson",
      "state": "WI",
      "address": "1551 Madison Avenue",
      "lat": 42.9407,
      "lng": -88.8611
    },
    {
      "slug": "franklin",
      "name": "Franklin, WI",
      "city": "Franklin",
      "state": "WI",
      "address": "4220 W. Oakwood Park Ct.",
      "lat": 42.872,
      "lng": -87.9701
    },
    {
      "slug": "glendale-wi-bayside-dr",
      "name": "Glendale, WI",
      "city": "Glendale",
      "state": "WI",
      "address": "300 W Bayside Drive",
      "lat": 43.1245,
      "lng": -87.9129
    },
    {
      "slug": "kopps-glendale",
      "name": "Kopp's Glendale, WI",
      "city": "Glendale",
      "state": "WI",
      "address": "5373 N Port Washington Rd",
      "brand": "kopps",
      "lat": 43.1197,
      "lng": -87.9125
    },
    {
      "slug": "grafton",
      "name": "Grafton, WI",
      "city": "Grafton",
      "state": "WI",
      "address": "2001 Wisconsin Ave.",
      "lat": 43.305,
      "lng": -87.961
    },
    {
      "slug": "green-bay-hansen",
      "name": "Green Bay, WI",
      "city": "Green Bay",
      "state": "WI",
      "address": "909 Hansen Road",
      "lat": 44.4761,
      "lng": -88.0761
    },
    {
      "slug": "green-bay-mason",
      "name": "Green Bay, WI",
      "city": "Green Bay",
      "state": "WI",
      "address": "1219 W. Mason Street",
      "lat": 44.518,
      "lng": -88.0491
    },
    {
      "slug": "green-bay-voyager",
      "name": "Green Bay, WI",
      "city": "Green Bay",
      "state": "WI",
      "address": "2945 Voyager Drive",
      "lat": 44.4866,
      "lng": -87.9357
    },
    {
      "slug": "greenfield-wi-layton-ave",
      "name": "Greenfield, WI",
      "city": "Greenfield",
      "state": "WI",
      "address": "6031 W Layton Ave",
      "lat": 42.959,
      "lng": -87.99
    },
    {
      "slug": "kopps-greenfield",
      "name": "Kopp's Greenfield, WI",
      "city": "Greenfield",
      "state": "WI",
      "address": "7631 W Layton Ave",
      "brand": "kopps",
      "lat": 42.9636,
      "lng": -87.9984
    },
    {
      "slug": "hales-corners",
      "name": "Hales Corners, WI",
      "city": "Hales Corners",
      "state": "WI",
      "address": "6101-A South 108th Street",
      "lat": 42.9342,
      "lng": -88.0495
    },
    {
      "slug": "hartford",
      "name": "Hartford, WI",
      "city": "Hartford",
      "state": "WI",
      "address": "1285 E Sumner St",
      "lat": 43.3173,
      "lng": -88.358
    },
    {
      "slug": "hartland-wi",
      "name": "Hartland, WI",
      "city": "Hartland",
      "state": "WI",
      "address": "701 Industrial Court",
      "lat": 43.0928,
      "lng": -88.3606
    },
    {
      "slug": "hudson",
      "name": "Hudson, WI",
      "city": "Hudson",
      "state": "WI",
      "address": "151 Carmichael Rd.",
      "lat": 44.968,
      "lng": -92.7219
    },
    {
      "slug": "jackson-wi",
      "name": "Jackson, WI",
      "city": "Jackson",
      "state": "WI",
      "address": "W227 N16880 Tillie Lake Ct.",
      "lat": 43.3255,
      "lng": -88.1888
    },
    {
      "slug": "janesville-court",
      "name": "Janesville, WI",
      "city": "Janesville",
      "state": "WI",
      "address": "2421 W. Court Street",
      "lat": 42.6789,
      "lng": -89.0502
    },
    {
      "slug": "janesville-milton",
      "name": "Janesville, WI",
      "city": "Janesville",
      "state": "WI",
      "address": "2633 Milton Avenue",
      "lat": 42.7149,
      "lng": -89.001
    },
    {
      "slug": "janesville-wi-midland-rd",
      "name": "Janesville, WI",
      "city": "Janesville",
      "state": "WI",
      "address": "645 Midland Road",
      "lat": 42.6724,
      "lng": -88.9779
    },
    {
      "slug": "johnson-creek",
      "name": "Johnson Creek, WI",
      "city": "Johnson Creek",
      "state": "WI",
      "address": "525 Village Walk Lane",
      "lat": 43.0833,
      "lng": -88.7639
    },
    {
      "slug": "burlington-rd-kenosha-wi",
      "name": "Kenosha, WI",
      "city": "Kenosha",
      "state": "WI",
      "address": "11811 29th St",
      "lat": 42.6135,
      "lng": -87.9501
    },
    {
      "slug": "kenosha",
      "name": "Kenosha, WI",
      "city": "Kenosha",
      "state": "WI",
      "address": "5220 Green Bay Road",
      "lat": 42.5884,
      "lng": -87.883
    },
    {
      "slug": "kenosha-sheridan",
      "name": "Kenosha, WI",
      "city": "Kenosha",
      "state": "WI",
      "address": "8124 Sheridan Road",
      "lat": 42.5563,
      "lng": -87.8258
    },
    {
      "slug": "la-crosse",
      "name": "La Crosse, WI",
      "city": "La Crosse",
      "state": "WI",
      "address": "4101 Mormon Coulee Rd.",
      "lat": 43.7735,
      "lng": -91.2192
    },
    {
      "slug": "lake-geneva",
      "name": "Lake Geneva, WI",
      "city": "Lake Geneva",
      "state": "WI",
      "address": "151 Wells Street",
      "lat": 42.5903,
      "lng": -88.4288
    },
    {
      "slug": "lake-mills-wi-tyranena-rd",
      "name": "Lake Mills, WI",
      "city": "Lake Mills",
      "state": "WI",
      "address": "190 Tyranena Park Rd",
      "lat": 43.0899,
      "lng": -88.911
    },
    {
      "slug": "little-chute-wi",
      "name": "Little Chute, WI",
      "city": "Little Chute",
      "state": "WI",
      "address": "2121 Freedom Road",
      "lat": 44.2953,
      "lng": -88.3136
    },
    {
      "slug": "madison-cottage-grove",
      "name": "Madison, WI",
      "city": "Madison",
      "state": "WI",
      "address": "4401 Cottage Grove Road",
      "lat": 43.0838,
      "lng": -89.3078
    },
    {
      "slug": "madison-east-towne",
      "name": "Madison, WI",
      "city": "Madison",
      "state": "WI",
      "address": "4301 East Towne Blvd.",
      "lat": 43.1253,
      "lng": -89.3084
    },
    {
      "slug": "madison-northport",
      "name": "Madison, WI",
      "city": "Madison",
      "state": "WI",
      "address": "1325 Northport Drive",
      "lat": 43.1341,
      "lng": -89.3729
    },
    {
      "slug": "madison-todd-drive",
      "name": "Madison, WI",
      "city": "Madison",
      "state": "WI",
      "address": "2102 West Beltline Hwy.",
      "lat": 43.0361,
      "lng": -89.415
    },
    {
      "slug": "madison-wi-mineral-point-rd",
      "name": "Madison, WI",
      "city": "Madison",
      "state": "WI",
      "address": "7206 Mineral Point Road",
      "lat": 43.0611,
      "lng": -89.5068
    },
    {
      "slug": "manitowoc",
      "name": "Manitowoc, WI",
      "city": "Manitowoc",
      "state": "WI",
      "address": "4201 Calumet Avenue",
      "lat": 44.0746,
      "lng": -87.7002
    },
    {
      "slug": "marinette",
      "name": "Marinette, WI",
      "city": "Marinette",
      "state": "WI",
      "address": "1225 Marinette Avenue",
      "lat": 45.0937,
      "lng": -87.6469
    },
    {
      "slug": "marshfield",
      "name": "Marshfield, WI",
      "city": "Marshfield",
      "state": "WI",
      "address": "109 W. Upham Street",
      "lat": 44.6809,
      "lng": -90.1646
    },
    {
      "slug": "mauston",
      "name": "Mauston, WI",
      "city": "Mauston",
      "state": "WI",
      "address": "640 McEvoy Road",
      "lat": 43.7959,
      "lng": -90.0596
    },
    {
      "slug": "mcfarland",
      "name": "McFarland, WI",
      "city": "McFarland",
      "state": "WI",
      "address": "4700 Farwell Street",
      "lat": 43.0138,
      "lng": -89.3022
    },
    {
      "slug": "medford-wi-casement-ct",
      "name": "Medford, WI",
      "city": "Medford",
      "state": "WI",
      "address": "909 Casement Ct",
      "lat": 45.1511,
      "lng": -90.3352
    },
    {
      "slug": "menomonee-falls",
      "name": "Menomonee Falls, WI",
      "city": "Menomonee Falls",
      "state": "WI",
      "address": "W186 N9581 Bancroft Dr.",
      "lat": 43.1917,
      "lng": -88.1408
    },
    {
      "slug": "menomonie",
      "name": "Menomonie, WI",
      "city": "Menomonie",
      "state": "WI",
      "address": "1330 Stout Road",
      "lat": 44.8788,
      "lng": -91.9134
    },
    {
      "slug": "menomonie-wi-oak-ave",
      "name": "Menomonie, WI",
      "city": "Menomonie",
      "state": "WI",
      "address": "298 Oak Ave",
      "lat": 44.9029,
      "lng": -91.9348
    },
    {
      "slug": "mequon",
      "name": "Mequon, WI",
      "city": "Mequon",
      "state": "WI",
      "address": "11150 N. Port Washington",
      "lat": 43.2208,
      "lng": -87.9234
    },
    {
      "slug": "merrill",
      "name": "Merrill, WI",
      "city": "Merrill",
      "state": "WI",
      "address": "3349 East Main Street",
      "lat": 45.1775,
      "lng": -89.6525
    },
    {
      "slug": "middleton",
      "name": "Middleton, WI",
      "city": "Middleton",
      "state": "WI",
      "address": "2906 Parmenter Street",
      "lat": 43.1062,
      "lng": -89.5113
    },
    {
      "slug": "gilles",
      "name": "Gille's Milwaukee, WI",
      "city": "Milwaukee",
      "state": "WI",
      "address": "7515 W Bluemound Rd",
      "brand": "gilles",
      "lat": 43.04,
      "lng": -88.006
    },
    {
      "slug": "milwaukee-fond-du-lac",
      "name": "Milwaukee, WI",
      "city": "Milwaukee",
      "state": "WI",
      "address": "5501 W Fond du Lac Ave",
      "lat": 43.0943,
      "lng": -87.9826
    },
    {
      "slug": "milwaukee-good-hope",
      "name": "Milwaukee, WI",
      "city": "Milwaukee",
      "state": "WI",
      "address": "7515 West Good Hope Road",
      "lat": 43.1482,
      "lng": -88.0041
    },
    {
      "slug": "milwaukee-layton",
      "name": "Milwaukee, WI",
      "city": "Milwaukee",
      "state": "WI",
      "address": "575 W. Layton Avenue",
      "lat": 42.9586,
      "lng": -87.9189
    },
    {
      "slug": "monroe",
      "name": "Monroe, WI",
      "city": "Monroe",
      "state": "WI",
      "address": "252 8th Street",
      "lat": 42.6031,
      "lng": -89.656
    },
    {
      "slug": "mt-horeb",
      "name": "Mt. Horeb, WI",
      "city": "Mt. Horeb",
      "state": "WI",
      "address": "1700 Springdale St",
      "lat": 43.0106,
      "lng": -89.7178
    },
    {
      "slug": "mukwonago",
      "name": "Mukwonago, WI",
      "city": "Mukwonago",
      "state": "WI",
      "address": "1090 N. Rochester Street",
      "lat": 42.8786,
      "lng": -88.3394
    },
    {
      "slug": "muskego",
      "name": "Muskego, WI",
      "city": "Muskego",
      "state": "WI",
      "address": "W187 S7959 Racine Ave.",
      "lat": 42.9001,
      "lng": -88.1487
    },
    {
      "slug": "oscars-muskego",
      "name": "Oscar's Muskego, WI",
      "city": "Muskego",
      "state": "WI",
      "address": "S74 W17015 Janesville Rd",
      "brand": "oscars",
      "lat": 42.8861,
      "lng": -88.1359
    },
    {
      "slug": "neenah",
      "name": "Neenah, WI",
      "city": "Neenah",
      "state": "WI",
      "address": "1161 Westowne Drive",
      "lat": 44.1743,
      "lng": -88.4927
    },
    {
      "slug": "new-berlin",
      "name": "New Berlin, WI",
      "city": "New Berlin",
      "state": "WI",
      "address": "14855 W. National Ave.",
      "lat": 42.9825,
      "lng": -88.0987
    },
    {
      "slug": "oscars-new-berlin",
      "name": "Oscar's New Berlin, WI",
      "city": "New Berlin",
      "state": "WI",
      "address": "3799 S Moorland Rd",
      "brand": "oscars",
      "lat": 42.9611,
      "lng": -88.1084
    },
    {
      "slug": "new-glarus",
      "name": "New Glarus, WI",
      "city": "New Glarus",
      "state": "WI",
      "address": "1405 State Road 69",
      "lat": 42.8058,
      "lng": -89.6323
    },
    {
      "slug": "new-richmond-wi-grant-way",
      "name": "New Richmond, WI",
      "city": "New Richmond",
      "state": "WI",
      "address": "124 Grant Way",
      "lat": 45.1015,
      "lng": -92.5383
    },
    {
      "slug": "oak-creek",
      "name": "Oak Creek, WI",
      "city": "Oak Creek",
      "state": "WI",
      "address": "7841 S. Howell Avenue",
      "lat": 42.9016,
      "lng": -87.9126
    },
    {
      "slug": "oconomowoc",
      "name": "Oconomowoc, WI",
      "city": "Oconomowoc",
      "state": "WI",
      "address": "1177 Summit Avenue",
      "lat": 43.0929,
      "lng": -88.479
    },
    {
      "slug": "onalaska",
      "name": "Onalaska, WI",
      "city": "Onalaska",
      "state": "WI",
      "address": "9422 State Hwy 16",
      "lat": 43.8748,
      "lng": -91.1913
    },
    {
      "slug": "onalaska-wi-oak-ave",
      "name": "Onalaska, WI",
      "city": "Onalaska",
      "state": "WI",
      "address": "835 Oak Avenue South",
      "lat": 43.8743,
      "lng": -91.2294
    },
    {
      "slug": "oostburg-wi-s-business-park-dr",
      "name": "Oostburg, WI",
      "city": "Oostburg",
      "state": "WI",
      "address": "33 S Business Park Dr",
      "lat": 43.6225,
      "lng": -87.7761
    },
    {
      "slug": "oregon-park-st",
      "name": "Oregon, WI",
      "city": "Oregon",
      "state": "WI",
      "address": "1075 Park St",
      "lat": 42.9173,
      "lng": -89.3696
    },
    {
      "slug": "oshkosh-koeller",
      "name": "Oshkosh, WI",
      "city": "Oshkosh",
      "state": "WI",
      "address": "1580 S. Koeller Street",
      "lat": 44.0033,
      "lng": -88.5813
    },
    {
      "slug": "oshkosh-westowne",
      "name": "Oshkosh, WI",
      "city": "Oshkosh",
      "state": "WI",
      "address": "2270 Westowne Ave.",
      "lat": 44.0309,
      "lng": -88.5901
    },
    {
      "slug": "paddock-lake-wi-antioch-rd",
      "name": "Paddock Lake, WI",
      "city": "Paddock Lake",
      "state": "WI",
      "address": "7600 Antioch Rd",
      "lat": 42.5672,
      "lng": -88.1167
    },
    {
      "slug": "brookfield-capitol",
      "name": "Pewaukee, WI",
      "city": "Pewaukee",
      "state": "WI",
      "address": "21300 W. Capitol Drive",
      "lat": 43.0842,
      "lng": -88.1775
    },
    {
      "slug": "platteville",
      "name": "Platteville, WI",
      "city": "Platteville",
      "state": "WI",
      "address": "375 E. Hwy. 151",
      "lat": 42.7273,
      "lng": -90.4738
    },
    {
      "slug": "pleasant-prairie",
      "name": "Pleasant Prairie, WI",
      "city": "Pleasant Prairie",
      "state": "WI",
      "address": "10484 Corporate Drive",
      "lat": 42.5232,
      "lng": -87.9459
    },
    {
      "slug": "plover-wi-plover-rd",
      "name": "Plover, WI",
      "city": "Plover",
      "state": "WI",
      "address": "1805 Plover Road",
      "lat": 44.4535,
      "lng": -89.5244
    },
    {
      "slug": "plymouth",
      "name": "Plymouth, WI",
      "city": "Plymouth",
      "state": "WI",
      "address": "2318 Eastern Avenue",
      "lat": 43.7477,
      "lng": -87.9532
    },
    {
      "slug": "port-washington",
      "name": "Port Washington, WI",
      "city": "Port Washington",
      "state": "WI",
      "address": "1407 W. Grand Ave.",
      "lat": 43.3861,
      "lng": -87.8972
    },
    {
      "slug": "portage",
      "name": "Portage, WI",
      "city": "Portage",
      "state": "WI",
      "address": "2733 New Pinery Rd.",
      "lat": 43.5636,
      "lng": -89.4688
    },
    {
      "slug": "prairie-du-chien",
      "name": "Prairie du Chien, WI",
      "city": "Prairie du Chien",
      "state": "WI",
      "address": "1915 S. Marquette Rd.",
      "lat": 43.0287,
      "lng": -91.1289
    },
    {
      "slug": "racine-21st",
      "name": "Racine, WI",
      "city": "Racine",
      "state": "WI",
      "address": "5801 21st Street",
      "lat": 42.7048,
      "lng": -87.8499
    },
    {
      "slug": "racine-wi-douglas-ave",
      "name": "Racine, WI",
      "city": "Racine",
      "state": "WI",
      "address": "4542 Douglas Ave",
      "lat": 42.7784,
      "lng": -87.8068
    },
    {
      "slug": "reedsburg",
      "name": "Reedsburg, WI",
      "city": "Reedsburg",
      "state": "WI",
      "address": "2075 Main Street",
      "lat": 43.533,
      "lng": -89.978
    },
    {
      "slug": "rhinelander",
      "name": "Rhinelander, WI",
      "city": "Rhinelander",
      "state": "WI",
      "address": "620 W. Kemp Street",
      "lat": 45.6329,
      "lng": -89.4317
    },
    {
      "slug": "wausau-wi-lilac-ave",
      "name": "Rib Mountain, WI",
      "city": "Rib Mountain",
      "state": "WI",
      "address": "225577 Lilac Ave",
      "lat": 44.9147,
      "lng": -89.6469
    },
    {
      "slug": "rice-lake",
      "name": "Rice Lake, WI",
      "city": "Rice Lake",
      "state": "WI",
      "address": "2250 S. Main Street",
      "lat": 45.4769,
      "lng": -91.7366
    },
    {
      "slug": "richland-center",
      "name": "Richland Center, WI",
      "city": "Richland Center",
      "state": "WI",
      "address": "2415 Hwy. 14 East",
      "lat": 43.3126,
      "lng": -90.3455
    },
    {
      "slug": "ripon",
      "name": "Ripon, WI",
      "city": "Ripon",
      "state": "WI",
      "address": "1086 W. Fond du Lac Street",
      "lat": 43.8536,
      "lng": -88.8588
    },
    {
      "slug": "river-falls-wi-main-st",
      "name": "River Falls, WI",
      "city": "River Falls",
      "state": "WI",
      "address": "1109 N Main St",
      "lat": 44.8712,
      "lng": -92.6225
    },
    {
      "slug": "wausau-park",
      "name": "Rothschild, WI",
      "city": "Rothschild",
      "state": "WI",
      "address": "10202 Park Plaza",
      "lat": 44.8655,
      "lng": -89.6393
    },
    {
      "slug": "sauk-city",
      "name": "Sauk City, WI",
      "city": "Sauk City",
      "state": "WI",
      "address": "716 Phillips Blvd.",
      "lat": 43.2707,
      "lng": -89.7299
    },
    {
      "slug": "shawano-wi-green-bay-st",
      "name": "Shawano, WI",
      "city": "Shawano",
      "state": "WI",
      "address": "1220 E Green Bay St",
      "lat": 44.7813,
      "lng": -88.5828
    },
    {
      "slug": "sheboygan-hwy42",
      "name": "Sheboygan, WI",
      "city": "Sheboygan",
      "state": "WI",
      "address": "4225 Highway 42",
      "lat": 43.7908,
      "lng": -87.7596
    },
    {
      "slug": "sheboygan-taylor-drive",
      "name": "Sheboygan, WI",
      "city": "Sheboygan",
      "state": "WI",
      "address": "641 S. Taylor Drive",
      "lat": 43.7494,
      "lng": -87.7456
    },
    {
      "slug": "sheboygan-wi-washington",
      "name": "Sheboygan, WI",
      "city": "Sheboygan",
      "state": "WI",
      "address": "2510 Washington Ave",
      "lat": 43.7199,
      "lng": -87.7396
    },
    {
      "slug": "shorewood",
      "name": "Shorewood, WI",
      "city": "Shorewood",
      "state": "WI",
      "address": "1325 E. Capitol Drive",
      "lat": 43.0886,
      "lng": -87.8939
    },
    {
      "slug": "sparta",
      "name": "Sparta, WI",
      "city": "Sparta",
      "state": "WI",
      "address": "911 W. Wisconsin Street",
      "lat": 43.9387,
      "lng": -90.8232
    },
    {
      "slug": "spring-green",
      "name": "Spring Green, WI",
      "city": "Spring Green",
      "state": "WI",
      "address": "E4919 U.S. Hwy 14",
      "lat": 43.1892,
      "lng": -90.0727
    },
    {
      "slug": "stevens-point",
      "name": "Stevens Point, WI",
      "city": "Stevens Point",
      "state": "WI",
      "address": "5346 Hwy. 10 East",
      "lat": 44.5239,
      "lng": -89.5219
    },
    {
      "slug": "stevens-point-division-wi",
      "name": "Stevens Point, WI",
      "city": "Stevens Point",
      "state": "WI",
      "address": "332 North Division Street",
      "lat": 44.5387,
      "lng": -89.576
    },
    {
      "slug": "stoughton",
      "name": "Stoughton, WI",
      "city": "Stoughton",
      "state": "WI",
      "address": "916 Nygaard Street",
      "lat": 42.9265,
      "lng": -89.2498
    },
    {
      "slug": "sturgeon-bay",
      "name": "Sturgeon Bay, WI",
      "city": "Sturgeon Bay",
      "state": "WI",
      "address": "5581 Gordon Road",
      "lat": 44.8602,
      "lng": -87.3441
    },
    {
      "slug": "racine-sylvania",
      "name": "Sturtevant, WI",
      "city": "Sturtevant",
      "state": "WI",
      "address": "722 S. Sylvania",
      "lat": 42.7259,
      "lng": -87.9571
    },
    {
      "slug": "suamico-wi",
      "name": "Suamico, WI",
      "city": "Suamico",
      "state": "WI",
      "address": "11820 Velp Ave",
      "lat": 44.592,
      "lng": -88.0774
    },
    {
      "slug": "sun-prairie",
      "name": "Sun Prairie, WI",
      "city": "Sun Prairie",
      "state": "WI",
      "address": "1501 W. Main Street",
      "lat": 43.1782,
      "lng": -89.2387
    },
    {
      "slug": "sun-prairie-oxford-place",
      "name": "Sun Prairie, WI",
      "city": "Sun Prairie",
      "state": "WI",
      "address": "550 Oxford Place",
      "lat": 43.1863,
      "lng": -89.2679
    },
    {
      "slug": "superior",
      "name": "Superior, WI",
      "city": "Superior",
      "state": "WI",
      "address": "2110 E. 2nd Street",
      "lat": 46.707,
      "lng": -92.0483
    },
    {
      "slug": "sussex",
      "name": "Sussex, WI",
      "city": "Sussex",
      "state": "WI",
      "address": "W249 N6620 Hwy. 164",
      "lat": 43.138,
      "lng": -88.2433
    },
    {
      "slug": "tomah",
      "name": "Tomah, WI",
      "city": "Tomah",
      "state": "WI",
      "address": "147 Wittig Road",
      "lat": 44.0173,
      "lng": -90.5034
    },
    {
      "slug": "verona",
      "name": "Verona, WI",
      "city": "Verona",
      "state": "WI",
      "address": "430 E. Verona Avenue",
      "lat": 42.9929,
      "lng": -89.5278
    },
    {
      "slug": "viroqua",
      "name": "Viroqua, WI",
      "city": "Viroqua",
      "state": "WI",
      "address": "1002 N. Main Street",
      "lat": 43.5678,
      "lng": -90.8896
    },
    {
      "slug": "wales",
      "name": "Wales, WI",
      "city": "Wales",
      "state": "WI",
      "address": "400 E. Summit Avenue",
      "lat": 43.0153,
      "lng": -88.374
    },
    {
      "slug": "watertown",
      "name": "Watertown, WI",
      "city": "Watertown",
      "state": "WI",
      "address": "1722 Church Street",
      "lat": 43.1719,
      "lng": -88.7329
    },
    {
      "slug": "waukesha-grandview",
      "name": "Waukesha, WI",
      "city": "Waukesha",
      "state": "WI",
      "address": "2600 N. Grandview Blvd.",
      "lat": 43.0398,
      "lng": -88.2564
    },
    {
      "slug": "waukesha-hwy-164",
      "name": "Waukesha, WI",
      "city": "Waukesha",
      "state": "WI",
      "address": "1650 East Main Street",
      "lat": 43.0227,
      "lng": -88.2018
    },
    {
      "slug": "waukesha-sunset",
      "name": "Waukesha, WI",
      "city": "Waukesha",
      "state": "WI",
      "address": "840 W. Sunset Drive",
      "lat": 42.9886,
      "lng": -88.2468
    },
    {
      "slug": "waunakee",
      "name": "Waunakee, WI",
      "city": "Waunakee",
      "state": "WI",
      "address": "900 E. Main Street",
      "lat": 43.1913,
      "lng": -89.4363
    },
    {
      "slug": "waupaca",
      "name": "Waupaca, WI",
      "city": "Waupaca",
      "state": "WI",
      "address": "1045 W. Fulton Street",
      "lat": 44.3562,
      "lng": -89.1097
    },
    {
      "slug": "waupun",
      "name": "Waupun, WI",
      "city": "Waupun",
      "state": "WI",
      "address": "900 Kelly Avenue",
      "lat": 43.6352,
      "lng": -88.7177
    },
    {
      "slug": "wausau-bridge",
      "name": "Wausau, WI",
      "city": "Wausau",
      "state": "WI",
      "address": "219 Central Bridge Street",
      "lat": 44.969,
      "lng": -89.6334
    },
    {
      "slug": "wautoma",
      "name": "Wautoma, WI",
      "city": "Wautoma",
      "state": "WI",
      "address": "101 North Century Drive",
      "lat": 44.0695,
      "lng": -89.2682
    },
    {
      "slug": "hefners",
      "name": "Hefner's West Allis, WI",
      "city": "West Allis",
      "state": "WI",
      "address": "2325 S 108th St",
      "brand": "hefners",
      "lat": 42.9957,
      "lng": -88.0511
    },
    {
      "slug": "west-allis",
      "name": "West Allis, WI",
      "city": "West Allis",
      "state": "WI",
      "address": "1672 South 108th Street",
      "lat": 43.0118,
      "lng": -88.0458
    },
    {
      "slug": "west-bend",
      "name": "West Bend, WI",
      "city": "West Bend",
      "state": "WI",
      "address": "2350 W. Washington St.",
      "lat": 43.4281,
      "lng": -88.2122
    },
    {
      "slug": "west-milwaukee",
      "name": "West Milwaukee, WI",
      "city": "West Milwaukee",
      "state": "WI",
      "address": "1641 Miller Parkway",
      "lat": 43.0131,
      "lng": -87.9682
    },
    {
      "slug": "whitewater",
      "name": "Whitewater, WI",
      "city": "Whitewater",
      "state": "WI",
      "address": "1414 W. Main Street",
      "lat": 42.8353,
      "lng": -88.7605
    },
    {
      "slug": "wisconsin-dells",
      "name": "Wisconsin Dells, WI",
      "city": "Wisconsin Dells",
      "state": "WI",
      "address": "351 HWY 13",
      "lat": 43.6256,
      "lng": -89.7884
    },
    {
      "slug": "wisconsin-rapids",
      "name": "Wisconsin Rapids, WI",
      "city": "Wisconsin Rapids",
      "state": "WI",
      "address": "2711 8th Street S.",
      "lat": 44.37,
      "lng": -89.8163
    }
  ]
}